sourceID,Name,Latitude,Longitude,Sector
3588448,Russian Federation_West Siberia (Central)_Conventional onshore,63.23504,75.119633,oil-and-gas-transport
3588658,Iran_Rub al Khali_Conventional shelf,26.628663,52.290485,oil-and-gas-production
3588734,Russian Federation_West Siberia (Central)_Conventional onshore,63.23504,75.119633,oil-and-gas-production
3588450,Russian Federation_West Siberia (Sth Kara/Yamal)_Conventional onshore,69.358794,75.204174,oil-and-gas-transport
3588660,Iran_Zagros Foldbelt_Conventional onshore,30.987858,49.300001,oil-and-gas-production
3588592,Canada_West Canadian - Alberta_Oil sands,56.171622,-111.343719,oil-and-gas-production
3588738,Saudi Arabia_Widyan - North Arabian Gulf_Conventional onshore,25.711951,48.918548,oil-and-gas-production
3588784,United States_Appalachian_Shale gas,40.470847,-79.109126,oil-and-gas-production
3588795,United States_Delaware_Tight oil,31.920092,-103.66224,oil-and-gas-production
3588663,Iraq_Widyan - North Arabian Gulf_Conventional onshore,30.873037,47.148518,oil-and-gas-production
3588594,Canada_West Canadian - Alberta_Tight gas,54.778371,-118.281783,oil-and-gas-production
3588603,China_Ordos_Tight gas,38.233633,109.042652,oil-and-gas-production
4571361,Unincorporated South Australia,-30.10202249999992,137.0008409029071,net-shrubgrass
3588803,United States_Midland_Tight oil,31.89689,-101.623009,oil-and-gas-production
3588589,Canada_West Canadian - Alberta_Conventional onshore,54.590938,-116.760916,oil-and-gas-production
3588822,Venezuela_Maturin_Heavy oil,8.594271,-63.968765,oil-and-gas-production
3588445,Russian Federation_OtherBasins_OtherResources,58.879279,78.350221,oil-and-gas-transport
3588726,Qatar_Rub al Khali_LNG,26.285452,52.00221,oil-and-gas-production
3588581,Brazil_Santos_Deepwater,-24.997388,-42.835842,oil-and-gas-production
3588801,United States_Gulf Coast_Tight oil,28.979387,-98.502899,oil-and-gas-production
3588725,Qatar_Rub al Khali_Conventional shelf,26.019102,52.277641,oil-and-gas-production
3588731,Russian Federation_OtherBasins_OtherResources,58.879279,78.350221,oil-and-gas-production
3588655,Indonesia_OtherBasins_OtherResources,-1.166016,115.103625,oil-and-gas-production
3588498,United States_Appalachian_Shale gas,40.470847,-79.109126,oil-and-gas-transport
3588678,Kuwait_Widyan - North Arabian Gulf_Conventional onshore,29.248825,47.708025,oil-and-gas-production
2801126,Singapore,1.2871324273496478,104.0457535794748,international-shipping
3588787,United States_ArkLaTex_Shale gas,32.407337,-94.189656,oil-and-gas-production
8370488,Ilimpiyskiy rayon,65.60852050750015,97.68973545025662,net-forest-land
4621705,Kitikmeot,66.95702350000008,-112.67615394171348,net-shrubgrass
3588509,United States_Delaware_Tight oil,31.920092,-103.66224,oil-and-gas-transport
3588549,Algeria_Oued Mya_Conventional onshore,32.044538,5.392792,oil-and-gas-production
3588807,United States_OtherBasins_OtherResources,38.936733,-106.297681,oil-and-gas-production
3588604,China_OtherBasins_OtherResources,32.049994,105.87143,oil-and-gas-production
1566956,POSCO Gwangyang steel plant,34.9202665408761,127.73213505628,iron-and-steel
3588733,Russian Federation_Volga - Urals_Conventional onshore,54.455942,52.364843,oil-and-gas-production
3588739,Saudi Arabia_Widyan - North Arabian Gulf_Conventional shelf,27.751243,49.485784,oil-and-gas-production
3588821,Venezuela_Maturin_Conventional onshore,9.47457,-63.795621,oil-and-gas-production
1566610,Angang Steel Co Ltd,41.1392046339499,122.981078374674,iron-and-steel
3588452,Saudi Arabia_Widyan - North Arabian Gulf_Conventional onshore,25.711951,48.918548,oil-and-gas-transport
3588710,Norway_Northern North Sea_Conventional shelf,60.074968,2.42507,oil-and-gas-production
3588771,United Arab Emirates_OtherBasins_OtherResources,24.317356,54.996304,oil-and-gas-production
3588773,United Arab Emirates_Rub al Khali_Conventional shelf,24.929785,53.442442,oil-and-gas-production
3588657,Iran_OtherBasins_OtherResources,31.205799,52.694281,oil-and-gas-production
3588736,Russian Federation_West Siberia (Sth Kara/Yamal)_Conventional onshore,69.358794,75.204174,oil-and-gas-production
4963599,Siyanda,-27.39765548599993,21.33541633802008,net-shrubgrass
3588813,United States_Williston_Tight oil,47.945689,-103.150797,oil-and-gas-production
3588517,United States_Midland_Tight oil,31.89689,-101.623009,oil-and-gas-transport
3588547,Algeria_Illizi - Ghadames_Conventional onshore,30.252614,8.009636,oil-and-gas-production
3588729,Russian Federation_Nepa - Botuoba_Conventional onshore,59.477694,108.895999,oil-and-gas-production
449560,Surgut GRES-2 power station,61.2794,73.4889,electricity-generation
32440567,Baoshan Iron and Steel Co Ltd Headquarters,31.4381774241191,121.431570229596,iron-and-steel
4571087,MacDonnell,-24.45698642699989,133.49969903144637,net-shrubgrass
37806718,Los Angeles,33.888532650942814,-117.78192346222228,road-transportation
3588737,Saudi Arabia_OtherBasins_OtherResources,26.379098,46.093488,oil-and-gas-production
448452,Taean,36.9033,126.2343,electricity-generation
8387291,Yukon-Koyukuk,65.19268417400008,-154.12197386662905,net-forest-land
32267423,China,36.555066531858685,103.88361230063248,chemicals
449443,Taizhong Taichung,24.215,120.479,electricity-generation
1566560,Wuhan Iron and Steel Co Ltd,30.6248662827845,114.446923174352,iron-and-steel
3588692,Mexico_Salinas - Sureste_Conventional onshore,18.024024,-93.4158,oil-and-gas-production
25451405,Togtoh power station,40.1952,111.3589,electricity-generation
8372278,Srednekolymskiy rayon,67.82240665850006,153.33648876000365,net-forest-land
35020188,Tokyo,35.64023545761761,139.4533900319704,residential-onsite-fuel-usage
33998936,CHN-Yulin_methanol,38.0375438003888,109.55343316157,chemicals
3588664,Iraq_Zagros Foldbelt_Conventional onshore,34.862416,44.67747,oil-and-gas-production
37811971,New York,40.65518013209355,-74.47289110520872,road-transportation
35037172,New York,40.65518013209355,-74.47289110520872,residential-onsite-fuel-usage
3588714,Oman_Rub al Khali_Conventional onshore,22.021109,56.294095,oil-and-gas-production
3588263,Algeria_Oued Mya_Conventional onshore,32.044538,5.392792,oil-and-gas-transport
1566628,Rizhao Steel Holding Group Co Ltd,35.1581728648412,119.348334006507,iron-and-steel
8370643,Srednekanskiy rayon,64.12085825600008,153.76108829455455,net-forest-land
1566957,POSCO Pohang steel plant,36.019788538193,129.39352314438,iron-and-steel
32440512,Zhangjiagang Hongchang Steel Co Ltd,31.9803618473109,120.630567746551,iron-and-steel
3588782,United States_Anadarko_Shale gas,35.166179,-98.077222,oil-and-gas-production
1566515,Shougang Jingtang United Iron & Steel Co Ltd,38.9585527174235,118.500854796019,iron-and-steel
1566917,JFE West Japan Works (Fukuyama) steel plant,34.4652277542007,133.43626320616,iron-and-steel
3588566,Australia_North Carnarvon_LNG,-19.820287,115.05524,oil-and-gas-production
3588280,Australia_North Carnarvon_LNG,-19.820287,115.05524,oil-and-gas-transport
1566499,Baosteel Zhanjiang Iron & Steel Co Ltd,21.0585577896032,110.502211588815,iron-and-steel
25451489,Vindhyachal power station,24.0983,82.6719,electricity-generation
4573559,East Pilbara,-21.617351499999955,124.06153187305512,net-shrubgrass
37810018,Tokyo,35.64023545761761,139.4533900319704,road-transportation
3588261,Algeria_Illizi - Ghadames_Conventional onshore,30.252614,8.009636,oil-and-gas-transport
452326,East Hope Metals Wucaiwan power station,44.6885,89.1138,electricity-generation
25453453,Mundra Thermal Power Project (Adani),22.8235,69.5535,electricity-generation
4621647,Inuvik,67.24219500000012,-127.43905389100652,net-shrubgrass
3588424,Norway_Northern North Sea_Conventional shelf,60.074968,2.42507,oil-and-gas-transport
25452218,Reftinskaya GRES power station,57.1108,61.7059,electricity-generation
25453357,Changshu-2 power station,31.7566,120.9731,electricity-generation
3588515,United States_Gulf Coast_Tight oil,28.979387,-98.502899,oil-and-gas-transport
8372285,Verkhnekolymskiy rayon,65.92210006750008,150.58846559681155,net-forest-land
8301093,Upper Hunter,-31.98125076249994,150.64706036993027,net-forest-land
1566771,ThyssenKrupp Steel Duisburg steel plant,51.4928500807883,6.72618868328965,iron-and-steel
3588372,Iran_Rub al Khali_Conventional shelf,26.628663,52.290485,oil-and-gas-transport
1566507,Guangxi Shenglong Metallurgical Co Ltd,21.6840527936968,108.409613245159,iron-and-steel
8372276,Olenekskiy rayon,68.41258239700011,113.50230572504825,net-forest-land
1566505,Liuzhou Iron & Steel Co Ltd(Liuzhou Base),24.3852527858698,109.382140439608,iron-and-steel
32440882,Hyundai Steel Dangjin steel plant,36.9879100342032,126.707713415392,iron-and-steel
3588772,United Arab Emirates_Rub al Khali_Acid/sour gas,24.37866,53.747802,oil-and-gas-production
25452549,Jiaxing power station,30.628,121.1442,electricity-generation
35032063,Seoul,37.46829804027408,126.93068323645105,residential-onsite-fuel-usage
3588447,Russian Federation_Volga - Urals_Conventional onshore,54.455942,52.364843,oil-and-gas-transport
3588428,Oman_Rub al Khali_Conventional onshore,22.021109,56.294095,oil-and-gas-transport
3588650,India_OtherBasins_OtherResources,20.029347,80.879242,oil-and-gas-production
25451254,Dangjin power station,37.0551,126.5122,electricity-generation
447565,Ganneng Fengcheng power station,28.1944,115.7088,electricity-generation
4865425,Khatangskiy rayon,72.67078000000015,101.21729279702738,net-shrubgrass
25450976,Taishan power station,21.8667,112.9228,electricity-generation
3588377,Iraq_Widyan - North Arabian Gulf_Conventional onshore,30.873037,47.148518,oil-and-gas-transport
25452546,Beilun power station,29.9427,121.8131,electricity-generation
3588443,Russian Federation_Nepa - Botuoba_Conventional onshore,59.477694,108.895999,oil-and-gas-transport
25450764,Belchatow power station,51.2679,19.3265,electricity-generation
4571029,Unincorporated New South Wales,-31.18286299999994,141.878103781508,net-shrubgrass
3588306,Canada_West Canadian - Alberta_Oil sands,56.171622,-111.343719,oil-and-gas-transport
4963597,Pixley ka Seme,-30.210919380999968,23.040088798538207,net-shrubgrass
3588798,United States_East Gulf Coast Tertiary_Deepwater,28.217177,-89.212314,oil-and-gas-production
32440544,Bengang Steel Plates Co Ltd,41.2779214618578,123.720619116493,iron-and-steel
3588690,Mexico_OtherBasins_OtherResources,20.734118,-95.550148,oil-and-gas-production
3588685,Malaysia_OtherBasins_OtherResources,5.623872,109.521228,oil-and-gas-production
3588656,Indonesia_South Sumatra_Conventional onshore,-2.628878,103.824355,oil-and-gas-production
4573747,Laverton,-27.93992042499991,125.44473994147795,net-shrubgrass
25453692,Tata Mundra Ultra Mega Power Project,22.8158,69.5281,electricity-generation
1567021,NLMK Lipetsk steel plant,52.5538212853963,39.6384381449921,iron-and-steel
3588724,Qatar_OtherBasins_OtherResources,26.169062,51.547607,oil-and-gas-production
25454598,Yangxi Zhujiang power station,21.5426,111.6703,electricity-generation
25453691,Sasan Ultra Mega Power Project,23.9775,82.6265,electricity-generation
3588501,United States_ArkLaTex_Shale gas,32.407337,-94.189656,oil-and-gas-transport
37810389,Dallas,32.91404388094789,-96.90018354783449,road-transportation
3588823,Venezuela_OtherBasins_OtherResources,10.137246,-67.616517,oil-and-gas-production
8369160,Bilibinskiy rayon,67.19539635850012,164.38635133221283,net-forest-land
1567260,Inner Mongolia BaoTou Steel Union Co Ltd,40.6402769010211,109.736137302563,iron-and-steel
3588659,Iran_Widyan - North Arabian Gulf_Conventional onshore,31.141119,47.89485,oil-and-gas-production
3588681,Libya_Sirte_Conventional onshore,28.911465,20.152472,oil-and-gas-production
4571115,Bulloo,-27.82611656099993,142.647314526023,net-shrubgrass
449168,Qurayyah ll power plant,25.826,50.1351,electricity-generation
25452419,Anpara power station,24.2031,82.7883,electricity-generation
3588281,Australia_OtherBasins_OtherResources,-23.201402,131.50117,oil-and-gas-transport
35019857,Tehran,35.65773662764559,51.32186581133854,residential-onsite-fuel-usage
25453234,Ninghai power station,29.4818,121.5115,electricity-generation
25450906,Majuba power station,-27.1006,29.771,electricity-generation
1567087,China Steel Corporation Xiaogang plant,22.780714220473,120.357294386258,iron-and-steel
3588654,Indonesia_Kutei_LNG,-0.885542,117.708164,oil-and-gas-production
25450220,Pingwei power station,32.6842,116.9014,electricity-generation
3588318,China_OtherBasins_OtherResources,32.049994,105.87143,oil-and-gas-transport
25450905,Lethabo power station,-26.742,27.9769,electricity-generation
25453872,Medupi power station,-23.705,27.5638,electricity-generation
3143912,RPL (Reliance Petroleum Limited) Jamnagar Refinery,22.335477,69.854513,oil-and-gas-refining
3588796,United States_Denver-Julesburg_Tight oil,40.462747,-104.478798,oil-and-gas-production
3588551,Angola_Lower Congo_Deepwater,-6.948487,11.480068,oil-and-gas-production
8372283,Ust'-Mayskiy rayon,60.762064084500054,135.77092957698724,net-forest-land
25452033,Waigaoqiao power station,31.3536,121.6003,electricity-generation
25453086,Houshi power station,24.3031,118.1259,electricity-generation
32440777,JSW Steel Vijayanagar steel plant,15.1788168621962,76.6598842738898,iron-and-steel
3588521,United States_OtherBasins_OtherResources,38.936733,-106.297681,oil-and-gas-transport
38089178,Ma'anshan Iron & Steel Co Ltd,31.7071127137254,118.472122653775,iron-and-steel
25451260,Yeongheung power station,37.2369,126.4361,electricity-generation
3588567,Australia_OtherBasins_OtherResources,-23.201402,131.50117,oil-and-gas-production
32440950,Magnitogorsk Iron & Steel Works,53.4250534893244,59.0454570406237,iron-and-steel
25454545,Jurong power station,32.1957,119.2497,electricity-generation
3588680,Libya_OtherBasins_OtherResources,30.139617,13.695714,oil-and-gas-production
3645972,Los Angeles,34.253569000000084,-118.14520630888786,road-transportation
3166444,Dubai International Airport,25.2527999878,55.3643989563,international-aviation
25451725,PLN Paiton power station,-7.7147,113.585,electricity-generation
4865312,Diksonskiy rayon,74.37265750000009,93.46019461402335,net-shrubgrass
32440961,Severstal Cherepovets steel plant,59.1433408017365,37.8437928624678,iron-and-steel
25454092,Huadian Laizhou power station,37.4322,120.0181,electricity-generation
1566925,"Nippon Kyushu Works (Oita Area, Oita) steel plant",33.2605699392887,131.646196734395,iron-and-steel
447793,Shidongkou power station,31.4651,121.4048,electricity-generation
3588693,Mexico_Salinas - Sureste_Conventional shelf,18.872287,-93.158777,oil-and-gas-production
8372265,Kobyayskiy rayon,64.89772415200005,128.39411084573453,net-forest-land
448480,Az Zour South CCGT,28.7055,48.3701,electricity-generation
3588573,Azerbaijan_South Caspian_Conventional shelf,40.116676,50.70157,oil-and-gas-production
1566584,Nanjing Iron & Steel Co Ltd,32.1876425264049,118.744814957189,iron-and-steel
8310263,Chengde,41.40086746250016,117.1824850280897,net-forest-land
32440450,Hebei Yanshan Iron and Steel Group Co Ltd,39.9190181700982,118.680142991859,iron-and-steel
25454834,Guazhou Changle power station,40.654,96.5027,electricity-generation
3588705,Nigeria_Niger Delta_Conventional onshore,5.304631,6.438867,oil-and-gas-production
37810360,Houston,29.881677075533467,-95.51090908523534,road-transportation
25457222,Weiqiao Zouping-1 power station,36.9107,117.7854,electricity-generation
1566853,Tata Steel Jamshedpur steel plant,22.7882898648179,86.2001365319857,iron-and-steel
3167702,London Heathrow Airport,51.4706,-0.461941,international-aviation
448927,PLTU Suralaya,-5.8892,106.0336,electricity-generation
1566923,Nippon East Japan Works (Kimitsu) steel plant,35.3582338626058,139.868542482411,iron-and-steel
25453105,Tanjung Jati B power station,-6.4448,110.7435,electricity-generation
25453047,Tamnar power station,22.0987,83.4513,electricity-generation
35031718,Moscow,55.73854666581315,37.55304557839002,residential-onsite-fuel-usage
3588674,Kazakhstan_Precaspian_Conventional onshore,47.494959,53.95819,oil-and-gas-production
25452317,Manjung power station,4.1586,100.6423,electricity-generation
1566485,Chongqing Iron & Steel Co Ltd,29.7871690274536,107.039694884869,iron-and-steel
25452028,Zouxian power station,35.3256,116.9261,electricity-generation
25450908,Matla power station,-26.2813,29.1415,electricity-generation
25453164,Yuhuan power station,28.1152,121.1391,electricity-generation
1566527,Hebei Donghai Special Steel Co Ltd,39.6051179045896,118.470396942639,iron-and-steel
25454003,Duyen Hai Power Generation Complex,9.5835,106.5268,electricity-generation
3588651,Indonesia_Central Sumatra_Conventional onshore,0.638364,101.35261,oil-and-gas-production
3588478,Turkmenistan_Amu-Darya_Acid/sour gas,37.62083,62.529148,oil-and-gas-transport
8398023,Western Downs,-26.806556701499943,150.5590008150625,net-forest-land
25454050,Tiroda Thermal Power Project,21.4125,79.9673,electricity-generation
25451063,Hubei Ezhou power station,30.5518,114.642,electricity-generation
25451015,Qinbei power station,35.1676,112.7165,electricity-generation
25453828,Tianjin Beijiang power station,39.2193,117.9299,electricity-generation
37811221,Atlanta,33.77571324536064,-84.33495607154954,road-transportation
25450166,Suizhong power station,40.0796,120.0096,electricity-generation
448484,Sabiya,29.5642,48.1707,electricity-generation
25453911,Taizhou power station,32.1872,119.9144,electricity-generation
8300015,Muconda,-10.169949531499952,21.471543009809274,net-forest-land
25453850,Vinh Tan power station,11.317,108.808,electricity-generation
25450902,Kendal power station,-26.0903,28.9688,electricity-generation
32440568,Shanxi Taigang Stainless Steel Co Ltd,37.930927747042,112.540146615951,iron-and-steel
25453295,Shangdu power station,42.2237,116.0293,electricity-generation
32440535,Xinyu Iron and Steel Group Co Ltd,27.786261482096,114.913356569255,iron-and-steel
25454807,Wujiaqu power station,44.2689,87.6879,electricity-generation
8398015,South Burnett,-26.400790214499896,151.62235286931,net-forest-land
448447,Boryeong power station,36.4009,126.4908,electricity-generation
25454015,Kusile power station,-25.9201,28.9249,electricity-generation
449190,RABIGH,22.6694,39.0365,electricity-generation
25450907,Matimba power station,-23.6688,27.6108,electricity-generation
4573906,Ngaanyatjarraku,-25.206968306499874,126.83434899621363,net-shrubgrass
3588295,Brazil_Santos_Deepwater,-24.997388,-42.835842,oil-and-gas-transport
37809460,Nagoya,35.07222584812989,136.90531962867692,road-transportation
8372281,Tomponskiy rayon,63.89195633050011,136.52809512822853,net-forest-land
32440428,SGIS Songshan Co Ltd,24.7100570682778,113.641620602938,iron-and-steel
3588527,United States_Williston_Tight oil,47.945689,-103.150797,oil-and-gas-transport
3588374,Iran_Zagros Foldbelt_Conventional onshore,30.987858,49.300001,oil-and-gas-transport
3588673,Kazakhstan_OtherBasins_OtherResources,46.045673,60.294781,oil-and-gas-production
25451979,Ghazlan power plant,26.8541,49.8976,electricity-generation
8310637,Kamina,-8.63520097649996,24.840525777239485,net-forest-land
8398004,North Burnett,-25.244355200499882,151.17307933386155,net-forest-land
8372255,Abyyskiy rayon,68.15612793000008,144.56440944147218,net-forest-land
4624338,Xilin Gol,44.19746398950008,114.8170198962506,net-shrubgrass
448682,RIHAND,24.027,82.7915,electricity-generation
25453799,Talcher Kaniha Super Thermal Power Station,21.0971,85.075,electricity-generation
25454362,Yuanyang Lake power station,38.0575,106.6914,electricity-generation
37808912,Osaka [Kyoto],34.714708709290925,135.45265511751924,road-transportation
25452937,Sipat power station,22.1317,82.2904,electricity-generation
35036784,Los Angeles,33.888532650942814,-117.78192346222228,residential-onsite-fuel-usage
8397985,Gympie,-26.177366173999957,152.47892085386837,net-forest-land
25451349,Mailiao power station,23.8034,120.189,electricity-generation
449439,Hsinta (gas),22.8558,120.1972,electricity-generation
37811405,Chicago,41.77211565388224,-87.97776911969052,road-transportation
25455866,Guoneng Shanghaimiao power station,38.3238,106.7213,electricity-generation
3588485,United Arab Emirates_OtherBasins_OtherResources,24.317356,54.996304,oil-and-gas-transport
25451058,Yimin power station,48.5497,119.7739,electricity-generation
25453969,ZETES power stations,41.5075,31.8949,electricity-generation
25451342,Chandrapur Thermal Power Station,20.0063,79.29,electricity-generation
4621703,Keewatin,63.49974050000009,-96.68815049999988,net-shrubgrass
25452661,Berezovskaya power station,55.5795,89.0713,electricity-generation
25451242,Hadong power station,34.9524,127.8199,electricity-generation
449864,SHAIBA (SEC),20.6275,39.5559,electricity-generation
1566528,Jingye Iron and Steel Co Ltd,38.3923873868991,114.143051203281,iron-and-steel
8372287,Verkhoyanskiy rayon,67.2338142400001,136.09011901276088,net-forest-land
25454094,Jiangsu Sheyanggang power station,33.8185,120.4633,electricity-generation
25453196,Ningxia Lingwu power station,38.1483,106.3458,electricity-generation
25450762,Nikola Tesla power station,44.6713,20.1584,electricity-generation
25450361,Hanchuan power station,30.6566,113.9173,electricity-generation
4571075,Central Desert,-21.047717093999978,130.8783808505808,net-shrubgrass
25450513,Petacalco power station,17.9837,-102.1154,electricity-generation
3588453,Saudi Arabia_Widyan - North Arabian Gulf_Conventional shelf,27.751243,49.485784,oil-and-gas-transport
1566891,Acciaierie d'Italia Taranto steel plant,40.5074532837775,17.2095911039166,iron-and-steel
25453720,Jinjie power station,38.7369,110.1661,electricity-generation
25454155,Zhangjiagang Shazhou power station,31.9897,120.6879,electricity-generation
8310737,Dilolo,-10.540426611999946,23.309473743282737,net-forest-land
447843,Eraring,-33.0622,151.5214,electricity-generation
3588440,Qatar_Rub al Khali_LNG,26.285452,52.00221,oil-and-gas-transport
25453816,Haimen power station,23.1899,116.6548,electricity-generation
37811893,Philadelphia,39.822059128392226,-75.31817142938532,road-transportation
1566683,Hebei Zongheng Group Fengnan Iron & Steel Co Ltd,39.2246442934324,118.09302346596,iron-and-steel
449138,Ryazanskaya GRES power station,54.0346,39.7799,electricity-generation
25453372,Chaozhou Sanbaimen power station,23.5664,117.0972,electricity-generation
25450446,Hekinan power station,34.8346,136.9593,electricity-generation
25455924,Shandong Xinfa Xinyuan power station,36.6155,116.2191,electricity-generation
3588688,Malaysia_Sarawak - Luconia-East Natuna_LNG,4.705347,112.515703,oil-and-gas-production
25451483,Ramagundam power station,18.7565,79.4601,electricity-generation
4760044,Mariental Rural,-24.572723388999883,18.989772807017953,net-shrubgrass
25450899,Duvha power station,-25.9613,29.3397,electricity-generation
33998977,CHN-Xilin Gol_methanol,44.2007796772242,115.476948055145,chemicals
25453439,Heyuan power station,23.5672,114.6403,electricity-generation
25454308,Zheneng Yueqing power station,28.1704,121.0889,electricity-generation
25452872,Kostromskaya GRES power station,57.4595,41.1747,electricity-generation
25453132,Kobe power station,34.7032,135.2394,electricity-generation
25454218,Xuzhou Pengcheng power station,34.3779,117.1759,electricity-generation
25451402,Dalate power station,40.367,109.996,electricity-generation
25451931,Novocherkasskaya GRES power station,47.401,40.232,electricity-generation
25451764,Suratgarh Super Thermal Power Station,29.1754,74.0199,electricity-generation
25452688,Xishan Gujiao power station,37.8937,112.0907,electricity-generation
3588364,India_OtherBasins_OtherResources,20.029347,80.879242,oil-and-gas-transport
25452505,Ligang power station,31.939,120.0806,electricity-generation
3588419,Nigeria_Niger Delta_Conventional onshore,5.304631,6.438867,oil-and-gas-transport
25450910,Tutuka power station,-26.7772,29.3524,electricity-generation
3588287,Azerbaijan_South Caspian_Conventional shelf,40.116676,50.70157,oil-and-gas-transport
33998925,CHN-Ordos_methanol,39.4089113608289,108.618039637608,chemicals
1566684,Shandong IRON&STEEL Group Rizhao Co Ltd,35.1963495675448,119.382214605277,iron-and-steel
1567144,U.S. Steel Gary Works,41.6185485423348,-87.3382842047471,iron-and-steel
8385117,Liwale,-9.188596247999897,37.91382711450916,net-forest-land
3672990,"Zouping, Shandong aluminium plant",37.018969,117.49298,aluminum
4621469,Ghanzi,-22.156114577499892,22.400001288864388,net-shrubgrass
3588308,Canada_West Canadian - Alberta_Tight gas,54.778371,-118.281783,oil-and-gas-transport
25450904,Kriel power station,-26.2539,29.1785,electricity-generation
3588591,Canada_West Canadian - Alberta_LNG,57.391229,-121.801614,oil-and-gas-production
25452938,Barh I power station,25.4865,85.7452,electricity-generation
8397997,Maranoa,-26.3918991084999,148.5389574636276,net-forest-land
3588439,Qatar_Rub al Khali_Conventional shelf,26.019102,52.277641,oil-and-gas-transport
25452336,Hitachinaka power station,36.4368,140.6138,electricity-generation
8398336,Wyndham-East Kimberley,-15.538554499999863,127.10177071019228,net-forest-land
25451041,Qinzhou power station,21.7005,108.6243,electricity-generation
25454596,Fujian Hongshan power station,24.7273,118.7497,electricity-generation
25451481,Korba Super Thermal Power Station (NTPC),22.3881,82.6858,electricity-generation
35036751,London,51.46002623586453,-0.12737855409314816,residential-onsite-fuel-usage
1566447,ArcelorMittal Tubarão steel plant,-20.249358137439,-40.2359822054274,iron-and-steel
3588751,Thailand_OtherBasins_OtherResources,13.770843,101.143795,oil-and-gas-production
1566573,Hunan Valin Lianyuan Iron and Steel Co Ltd,27.7484114944578,111.964254249159,iron-and-steel
1566601,Shanghai Meishan Iron and Steel Co Ltd,31.9039009292538,118.608454622383,iron-and-steel
33998958,CHN-Fuyang_ammonia,32.9160539178019,115.701331527837,chemicals
8310743,Sandoa,-9.38192510549996,22.97498115457688,net-forest-land
25451574,Daba power station,37.9855,105.9283,electricity-generation
25452514,Yangcheng power station,35.4661,112.5742,electricity-generation
1566916,JFE West Japan Works (Kurashiki) steel plant,34.4887946018503,133.723021860715,iron-and-steel
449444,Talin,22.537,120.335,electricity-generation
1566514,Chengde Iron and Steel Group Co Ltd,40.946607002627,117.719699353804,iron-and-steel
3588609,Colombia_Llanos_Heavy oil,4.005658,-72.513382,oil-and-gas-production
25450684,Matsuura Kyushu power station,33.3534,129.6876,electricity-generation
25450770,Opole power station,50.7514,17.8845,electricity-generation
1281165,Chongqing,30.18792343150014,107.86975436631752,residential-onsite-fuel-usage
35020156,Osaka [Kyoto],34.714708709290925,135.45265511751924,residential-onsite-fuel-usage
4963595,Namakwa,-30.488750457499922,19.942130955504886,net-shrubgrass
4624715,Nagchu,33.21288490400008,88.30538751683753,net-shrubgrass
25450642,Bayswater power station,-32.394,150.9501,electricity-generation
25451939,Neurath power station,51.0358,6.633,electricity-generation
451113,Linkou,25.1209,121.298,electricity-generation
1566516,Shougang Qian'an Iron and Steel Co Ltd,39.9772378773843,118.562203750364,iron-and-steel
3588577,Brazil_Campos_Deepwater,-22.409513,-40.191475,oil-and-gas-production
4571184,Quilpie,-26.138063429999903,143.75510653127884,net-shrubgrass
25452445,Janschwalde power station,51.8357,14.4578,electricity-generation
1567170,Formosa Ha Tinh Steel plant,18.0363252887948,106.432410893311,iron-and-steel
25452980,Tanjung Bin power station,1.334,103.5422,electricity-generation
32440965,Evraz ZSMK steel plant,53.8838469332353,87.261338607241,iron-and-steel
1566756,Hebei Anfeng Iron & Steel Co Ltd,39.6590675123332,118.895271754356,iron-and-steel
3588392,Kuwait_Widyan - North Arabian Gulf_Conventional onshore,29.248825,47.708025,oil-and-gas-transport
1566572,Hunan Valin Xiangtan Iron and Steel Co Ltd,27.8184553227868,112.896396467956,iron-and-steel
25452916,Anqing power station,30.541,117.1717,electricity-generation
1566991,Tata Steel IJmuiden steel plant,52.4828927959073,4.60665426159174,iron-and-steel
32440516,Lianfeng Steel (Zhangjiagang) Co Ltd,31.8519281772557,120.729759223269,iron-and-steel
1566687,Hbis Laoting Steel Co Ltd,39.2733873647166,119.05612786932,iron-and-steel
1566518,Tangshan Ruifeng Iron and Steel (Group) Co Ltd,39.4973567641141,118.274239607097,iron-and-steel
25451326,Meizhou Wan power station,25.1608,119.0333,electricity-generation
1566816,ArcelorMittal Dunkerque steel plant,51.037915340463,2.2961286240222,iron-and-steel
4406800,<unknown plant name>,17.3389,42.3869,electricity-generation
451683,Kudgi Super Thermal Power Project,16.4995,75.8346,electricity-generation
25450475,Jorf Lasfar power station,33.1047,-8.6376,electricity-generation
33999052,CHN-Yinchuan_methanol,38.219198547189,106.34127437586,chemicals
3621257,Chongqing,30.18792343150014,107.86975436631752,road-transportation
8310361,Jilin,43.60329055850004,126.86178042237948,net-forest-land
8372270,Momskiy rayon,65.86739349400011,143.85893240929732,net-forest-land
25455250,Huaibei Pingshan power station,33.8339,116.8311,electricity-generation
3588369,Indonesia_OtherBasins_OtherResources,-1.166016,115.103625,oil-and-gas-transport
25448961,Monroe (MI),41.8906,-83.3464,electricity-generation
3167058,Incheon International Airport,37.46910095214844,126.45099639892578,international-aviation
1566927,Nippon East Japan Works (Kashima) steel plant,35.9349894229244,140.677810631168,iron-and-steel
4624385,Gyêgu Tibetan,33.910614014000174,93.62742454604651,net-shrubgrass
25451055,Jiangsu Nantong power station,32.0321,120.7696,electricity-generation
25451479,Kahalgaon Super Thermal Power Plant,25.2369,87.2656,electricity-generation
3588317,China_Ordos_Tight gas,38.233633,109.042652,oil-and-gas-transport
32441253,Shandong Iron and Steel Co Ltd Laiwu Branch Xinxing Road,36.0856718848724,117.832132072503,iron-and-steel
37811805,Washington D.C.,38.90819062078313,-77.10039614215113,road-transportation
37809158,Phoenix,33.446253347082305,-112.09728340216463,road-transportation
450553,CPI Fenyi power station,27.959,114.7522,electricity-generation
25453947,Mauda power station,21.1807,79.3965,electricity-generation
25454746,Shenhua Guoneng Hami power station,42.407,93.0131,electricity-generation
3588706,Nigeria_Niger Delta_Conventional shelf,4.46789,6.790905,oil-and-gas-production
1566585,Jiangyin Xingcheng Special Steel Works Co Ltd,31.9470938322366,120.322993158155,iron-and-steel
25450591,Jianbi power station,32.1769,119.5755,electricity-generation
25453565,Shree Singaji Thermal Power Project,22.0991,76.5317,electricity-generation
1566526,Tangshan Ganglu Iron and Steel Co Ltd,40.1832011373088,118.066356148768,iron-and-steel
31715549,"Guangxi Huili New Materials Technology Co., Ltd.",23.2374799,109.33464,lime
4624324,Hulunbuir,50.24089050400008,122.38733314984397,net-shrubgrass
25457224,Weiqiao Zouping-7 power station,36.8963,117.8605,electricity-generation
3588625,Ecuador_Oriente_Conventional onshore,-0.290777,-76.626657,oil-and-gas-production
3588496,United States_Anadarko_Shale gas,35.166179,-98.077222,oil-and-gas-transport
37811213,Miami,26.23824553719814,-80.20132382668979,road-transportation
25449166,Gibson,38.3722,-87.7658,electricity-generation
1566611,Angang Steel Co Ltd Bayuquan branch,40.3128472773855,122.12967812922,iron-and-steel
25448871,James H Miller Jr,33.6319,-87.0597,electricity-generation
25453943,Lusigang power station,32.0586,121.7267,electricity-generation
25452312,Hongsa power station,19.6913,101.2782,electricity-generation
1566539,Hebei Xinda Iron and Steel Group Co Ltd,39.9021660555328,118.582529547916,iron-and-steel
25452444,Boxberg power station,51.4205,14.5703,electricity-generation
3588451,Saudi Arabia_OtherBasins_OtherResources,26.379098,46.093488,oil-and-gas-transport
448679,DADRI (NCTPP),28.603,77.6078,electricity-generation
25453681,Jharsuguda Sterlite power station,21.8157,84.042,electricity-generation
1567303,Handan Iron and Steel Group Co Ltd,36.601308,114.439889,iron-and-steel
3644601,Maricopa,33.275846482000105,-112.76466143987253,road-transportation
32440593,Baosteel Group Xinjiang Bayi Iron & Steel Co Ltd,43.8487910801274,87.3081716993016,iron-and-steel
3166395,Hamad International Airport,25.273056,51.608056,international-aviation
35037035,Chicago,41.77211565388224,-87.97776911969052,residential-onsite-fuel-usage
1566429,Voestalpine Stahl Linz steel plant,48.2804142114121,14.3317572692527,iron-and-steel
25450767,Kozienice power station,51.667,21.462,electricity-generation
1566523,Wu'an Yuhua Iron and Steel Co Ltd,36.7313801961782,114.094305517581,iron-and-steel
25453561,Datang Sanmenxia power station,34.6855,111.0274,electricity-generation
1896185,Guangxi Zhuangzuzizhiqu 7,23.5535059912516,107.114122610882,cement
1566849,SAIL Bhilai steel plant,21.1850719121147,81.3919548403863,iron-and-steel
25453435,Huainan Tianji power station,32.7465,116.8127,electricity-generation
1566855,Vizag Steel plant,17.6106677984645,83.1914800457485,iron-and-steel
4627713,Kamina,-8.63520097649996,24.840525777239485,net-shrubgrass
3169099,Singapore Changi Airport,1.35019,103.994003,international-aviation
8387288,Valdez-Cordova,61.48970950000006,-143.9722502154881,net-forest-land
25452427,Syrdarya power station,40.2296,69.0998,electricity-generation
25455961,Tongmei Tashan power station,39.9242,113.0851,electricity-generation
25452965,Zheneng Wenzhou power station,27.9957,120.8359,electricity-generation
25452780,Zhanjiang power station,21.3132,110.4095,electricity-generation
3588487,United Arab Emirates_Rub al Khali_Conventional shelf,24.929785,53.442442,oil-and-gas-transport
3588271,Argentina_Neuquen_Shale oil,-38.12345,-68.701499,oil-and-gas-transport
25453594,Chhabra Thermal Power Station,24.6274,77.0376,electricity-generation
1566702,Zenith Steel Group (Nantong) Co Ltd,32.1211158042791,121.498959696849,iron-and-steel
447850,Bang Pakong,13.501,101.0253,electricity-generation
32441037,Cleveland-Cliffs Indiana Harbor steel plant,41.6718778267409,-87.4356019169037,iron-and-steel
33998998,IND-Jagatsinghapur_ammonia,20.1531931077512,86.4383618488829,chemicals
6569,Thar Block I power station,24.7108,70.3025,electricity-generation
8310366,Yanbian Korean,43.23860359200012,129.42553882796713,net-forest-land
25452019,Huaneng Laiwu power station,36.1343,117.685,electricity-generation
25449001,Bowen,34.1256,-84.9222,electricity-generation
25455585,Hubco power station,24.9147,66.6888,electricity-generation
25453996,Anhui Bengbu power station,32.7844,117.1147,electricity-generation
3166651,Frankfurt Airport,50.036521,8.561268,international-aviation
4760032,Keetmanshoop Rural,-26.95068836249996,18.84983786975655,net-shrubgrass
1566541,Tangshan Donghai Iron and Steel Group Co Ltd,39.7466721226454,118.62651654157,iron-and-steel
25453514,Guangdong Huilai power station,23.0048,116.5472,electricity-generation
1566657,Chengyu Vanadium & Titanium Technology Co Ltd,29.7322791132517,104.501422398052,iron-and-steel
25453201,Shenhua Hequ power station,39.3831,111.1843,electricity-generation
449445,Dah-Tarn,25.0262,121.0471,electricity-generation
3588820,Venezuela_Maracaibo_Conventional shelf,10.073934,-71.423395,oil-and-gas-production
25451328,Loy Yang A power station,-38.2524,146.5753,electricity-generation
3588732,Russian Federation_Timan - Pechora_Conventional onshore,67.033686,56.767271,oil-and-gas-production
25455150,Shentou power station,39.551,112.4887,electricity-generation
25455941,Weiqiao Huji power station,37.3537,117.7793,electricity-generation
25450168,Ekibastuz-1 power station,51.8861,75.3769,electricity-generation
25451532,Daihai power station,40.5197,112.6677,electricity-generation
25453548,Xinhai power station,34.5779,119.1267,electricity-generation
25451344,Koradi Thermal Power Station,21.2421,79.095,electricity-generation
3166058,Charles de Gaulle International Airport,49.012798,2.55,international-aviation
451089,Huaneng Ruijin power station,25.9244,115.1028,electricity-generation
25453794,Huainan Fengtai power station,32.758,116.65,electricity-generation
32267411,U.S.A.,45.70562800215178,-112.5994359115045,chemicals
25453351,Dingzhou power station,38.5122,114.8434,electricity-generation
25450558,Mejia power station,23.4639,87.1311,electricity-generation
25455926,Changzhi power station,36.3311,113.1022,electricity-generation
25451477,Farakka power station,24.7727,87.8937,electricity-generation
3645440,Harris,29.83457600000017,-95.39074195075592,road-transportation
25452703,Pingliang power station,35.5017,106.7861,electricity-generation
447784,"Jebel Ali ""M""",25.0493,55.1116,electricity-generation
8300019,Saurimo,-9.49022531549994,20.34700590271639,net-forest-land
25453560,Ningde power station,26.7574,119.7354,electricity-generation
25454315,Fugu Qingshuichuan power station,39.2049,111.119,electricity-generation
4571224,Anangu Pitjantjatjara,-27.035972499999957,131.20407100000017,net-shrubgrass
451589,Riyadh 9 power plant,24.9491,47.0649,electricity-generation
3588548,Algeria_OtherBasins_OtherResources,28.070417,2.60484,oil-and-gas-production
451854,Huolinhe Zhanute power station,45.4098,119.5967,electricity-generation
25454323,China Resources Caofeidian power station,38.9961,118.4875,electricity-generation
25454219,Guohua Taicang power station,31.5877,121.2563,electricity-generation
32440381,CSN Volta Redonda steel plant,-22.5121729102647,-44.1124400137224,iron-and-steel
1567326,Xuanhua Iron and Steel Group Co Ltd,40.589591,115.090889,iron-and-steel
25450213,Dr. Narla Tata Rao Thermal power station,16.5952,80.5393,electricity-generation
1567292,Azovstal Iron & Steel Works,47.094724,37.596862,iron-and-steel
3588764,Turkmenistan_Amu-Darya_Acid/sour gas,37.62083,62.529148,oil-and-gas-production
8309781,Cochrane,50.29585850000014,-83.03324386950615,net-forest-land
25451940,Niederaussem power station,50.994,6.6675,electricity-generation
1566774,Salzgitter Flachstahl steel plant,52.1592529107735,10.4070473003163,iron-and-steel
3588270,Argentina_Neuquen_Shale gas,-38.162241,-69.233696,oil-and-gas-transport
25452029,Huaneng Dezhou power station,37.4493,116.2416,electricity-generation
25450215,Fuyang power station,33.0044,115.8453,electricity-generation
25451054,Luohuang power station,29.3474,106.4332,electricity-generation
450661,Wujing power station,31.0611,121.4667,electricity-generation
453137,Henan Xinmi power station,34.5,113.598,electricity-generation
8370483,Eniseyskiy rayon,59.58419227650004,89.48936595531353,net-forest-land
715475,Neyveli Thermal Power Station I,11.5925,79.4739,electricity-generation
25453709,Sri Damodaram Sanjeevaiah Thermal Power Station,14.3276,80.1221,electricity-generation
25451486,Singrauli Super Thermal Power Station,24.1042,82.7064,electricity-generation
3167227,John F Kennedy International Airport,40.639447,-73.779317,international-aviation
25454704,Dabieshan power station,31.1419,114.8922,electricity-generation
3588446,Russian Federation_Timan - Pechora_Conventional onshore,67.033686,56.767271,oil-and-gas-transport
449701,Huaneng Yangluo power station,30.6939,114.5431,electricity-generation
34978691,Toronto,43.589197986195956,-79.7521376766492,residential-onsite-fuel-usage
2790225,Adabiya,29.79963733537512,32.501805984427136,international-shipping
25453267,Hebei Cangdong power station,38.31,117.8786,electricity-generation
447853,Mae Moh power station,18.296,99.752,electricity-generation
25451551,Zhangjiakou power station,40.6596,114.9438,electricity-generation
25454391,Lalitpur power project,24.7958,78.6469,electricity-generation
25450454,Misumi power station,34.7797,131.9215,electricity-generation
25452322,Haramachi power station,37.6657,141.0148,electricity-generation
3167631,Los Angeles / Tom Bradley International Airport,33.942501,-118.407997,international-aviation
3588303,Canada_West Canadian - Alberta_Conventional onshore,54.590938,-116.760916,oil-and-gas-transport
25453930,Fuzhou Kemen power station,26.3734,119.7622,electricity-generation
1567096,ArcelorMittal Kryvyi Rih steel plant,47.8709126583371,33.3910080206973,iron-and-steel
25450436,Castle Peak power station,22.3751,113.9205,electricity-generation
8310738,Kapanga,-8.487841129499941,22.796433973232766,net-forest-land
25453436,Fangchenggang Qisha power station,21.5914,108.3946,electricity-generation
25451161,Nakoso power station,36.9128,140.8128,electricity-generation
3621036,Beijing,40.250894547500025,116.6239986979351,road-transportation
25452781,Guang'an power station,30.5288,106.8265,electricity-generation
32441018,China Steel Dragon Steel Taichung plant,24.2281835155082,120.493721091131,iron-and-steel
3166941,Hong Kong International Airport,22.308901,113.915001,international-aviation
25453903,Talwandi Sabo Power Project,29.9246,75.2389,electricity-generation
3588273,Argentina_OtherBasins_OtherResources,-41.096024,-67.961305,oil-and-gas-transport
25449119,"Gavin Power, LLC",38.9347,-82.1158,electricity-generation
25450897,Arnot power station,-25.9438,29.792,electricity-generation
8301103,Warrumbungle,-31.455188751499886,149.46327928547277,net-forest-land
4628267,Sandoa,-9.38192510549996,22.97498115457688,net-shrubgrass
25454305,Shanghai Caojing power station,30.7607,121.4008,electricity-generation
25451056,Shang'an power station,38.0573,114.1963,electricity-generation
1566440,ArcelorMittal Gent steel plant,51.1701987397134,3.80660787953403,iron-and-steel
25453364,Lanxi power station,29.1866,119.5068,electricity-generation
25451060,Huaneng Yueyang power station,29.4498,113.1623,electricity-generation
37809905,Mexico City,19.54401781556402,-99.07408180948431,road-transportation
1566531,Cangzhou China Railway Equipment Manufacture Material Co Ltd,38.2901277025542,117.818735633681,iron-and-steel
8397984,Goondiwindi,-28.461812972499924,150.28872719423552,net-forest-land
448250,Huaneng Dalian power station,39.0142,121.7244,electricity-generation
4574032,Wiluna,-25.384174345499957,122.37694608856228,net-shrubgrass
25455190,Shenhua Jiujiang power station,29.8266,116.376,electricity-generation
1281164,Beijing,40.250894547500025,116.6239986979351,residential-onsite-fuel-usage
8300082,Alto Zambeze,-12.161863767999876,23.160127240174887,net-forest-land
1308528,Theran,35.75943374650004,51.43996725891933,residential-onsite-fuel-usage
25449020,W A Parish,29.479,-95.6326,electricity-generation
25453252,Panxian-2 power station,25.4686,104.5924,electricity-generation
25451547,Xibaipo power station,38.2451,114.2149,electricity-generation
37811207,Minneapolis [Saint Paul],45.00235197492209,-93.13696524791882,road-transportation
4571031,Upper Hunter,-31.98125076249994,150.64706036993027,net-shrubgrass
1281407,Shanghai,31.09528446150012,121.37200387260373,residential-onsite-fuel-usage
1566675,Quzhou Yuanli Metal Products Co Ltd,28.8928737546316,118.866497292117,iron-and-steel
8367693,Tyndinskiy rayon,55.46202659600005,124.1520852256159,net-forest-land
4622440,Nord-du-Québec,55.75281500000011,-70.3898471804419,net-shrubgrass
25451800,Konakovskaya GRES power station,56.741,36.7707,electricity-generation
25452610,Puqi Xianning power station,29.6652,113.873,electricity-generation
3673046,CHN-Baise,23.9848531230091,106.291549945361,aluminum
25453939,Guizhou Fa'er power station,26.3259,104.7706,electricity-generation
452482,Xinjiang Qiya Smelter power station,44.8608,89.0233,electricity-generation
3588512,United States_East Gulf Coast Tertiary_Deepwater,28.217177,-89.212314,oil-and-gas-transport
25453569,Wuhu power station,31.2372,118.1497,electricity-generation
35000661,Shanghai,31.157130598691033,121.39169964806776,residential-onsite-fuel-usage
25453251,Wushashan power station,29.5054,121.6629,electricity-generation
1566613,Rizhao Steel Yingkou Medium Plate Co Ltd,40.6716335631655,122.398759610879,iron-and-steel
1566964,QIC Qarmet steel plant,50.0481524625171,73.0305158496423,iron-and-steel
25454776,Samcheok Green power station,37.186,129.3418,electricity-generation
3588574,Bahrain_OtherBasins_OtherResources,26.440395,50.523722,oil-and-gas-production
25450373,Huadian Xiangyang power station,31.9118,112.1669,electricity-generation
25451577,Pucheng power station,34.9779,109.8,electricity-generation
8309608,Ndélé,8.553472042500118,20.93775463330535,net-forest-land
25451153,Guoxin Yangzhou power station,32.2678,119.4194,electricity-generation
35036297,Istanbul,41.005708422119504,28.983408437496834,residential-onsite-fuel-usage
1566679,Guangxi Iron and Steel Group Co Ltd,21.5600666451494,108.390725040205,iron-and-steel
1566651,Shanxi Jianlong Industrial Co Ltd,35.4126852153104,111.299870409768,iron-and-steel
25454852,Fugu Miaogoumen power station,39.2083,110.785,electricity-generation
3588684,Malaysia_Malay_Conventional shelf,5.937522,104.521251,oil-and-gas-production
25455102,XPCC Shihezi Cogen power station,44.4281,86.0936,electricity-generation
25453051,Diandong power station,25.1994,104.6819,electricity-generation
25449230,Cumberland (TN),36.3903,-87.6539,electricity-generation
449497,Sultan Aziz power station,3.1172,101.3204,electricity-generation
25452247,North Chennai Thermal Power Station,13.253,80.3278,electricity-generation
37806360,Melbourne,-37.81290387213736,145.14383020164314,road-transportation
1308818,Roma,41.852222385000175,12.631950928605294,residential-onsite-fuel-usage
3588602,China_North China_Heavy oil,39.305098,119.295957,oil-and-gas-production
1566658,Tianjin Iron Plant,36.5958243627938,113.748486411585,iron-and-steel
8397958,Banana,-24.80539226549993,150.1040630172769,net-forest-land
3588469,Trinidad and Tobago_Columbus_LNG,10.1585,-60.297268,oil-and-gas-transport
1566825,Tata Steel Port Talbot steel plant,51.569874245631,-3.77611878422272,iron-and-steel
1896430,Liaoning Sheng 11,41.3031493390951,123.326941918835,cement
1566924,Nippon East Japan Works (Nagoya) steel plant,35.0289480509098,136.867109016031,iron-and-steel
8301056,Mid-Western Regional,-32.60198402399993,149.7358914515608,net-forest-land
25448879,John E Amos,38.4731,-81.8233,electricity-generation
1380105,Los Angeles,34.253569000000084,-118.14520630888786,residential-onsite-fuel-usage
8398019,Toowoomba,-27.47932147999992,151.5206901984521,net-forest-land
4873432,Bulunskiy rayon,71.24557500000009,125.99970987088642,net-shrubgrass
25453958,KSK Mahanadi Power Project,21.9603,82.4091,electricity-generation
25451787,Iriklinsk GRES power station,51.754,58.8033,electricity-generation
1566600,Zhongxin Iron and Steel Group Co Ltd,34.3616112216462,118.266441997554,iron-and-steel
449534,Hirono,37.2383,141.0174,electricity-generation
3588713,Oman_OtherBasins_OtherResources,21.742995,56.686398,oil-and-gas-production
25454703,Hezhou power station,24.7361,111.3467,electricity-generation
1567002,ArcelorMittal Dąbrowa Górnicza steel plant,50.3407297684247,19.3083132509757,iron-and-steel
37809441,Seattle,47.62463860469957,-122.13892678814702,road-transportation
1566549,Anyang Iron & Steel Co Ltd,36.124973358048,114.285532880118,iron-and-steel
3588590,Canada_West Canadian - Alberta_Heavy oil,54.136102,-112.13364,oil-and-gas-production
33998982,CHN-Yichang_ammonia,30.7481999428407,111.135741275473,chemicals
25452325,Noshiro power station,40.1912,139.9911,electricity-generation
25454115,Bara Thermal Power Project,25.1963,81.6585,electricity-generation
25451540,Panshan power station,39.9801,117.4631,electricity-generation
449128,Stavropolskaya GRES,45.3118,41.5131,electricity-generation
25451061,Tieling power station,42.345,123.803,electricity-generation
8310274,Harbin,45.367523194000086,127.40632494813303,net-forest-land
712514,GS-Caltex Yeosu Refinery,34.8504,127.7175,oil-and-gas-refining
25452664,Primorsky power station,46.4652,134.2906,electricity-generation
25455191,Shenhua Yongzhou power station,26.5667,111.4927,electricity-generation
3931935,NA,51.48933489050006,-0.1440311748955265,residential-onsite-fuel-usage
32440858,"Nippon Kansai Works (Wakayama Area, Wakayama) steel plant",34.2365191428778,135.13390138657,iron-and-steel
3588486,United Arab Emirates_Rub al Khali_Acid/sour gas,24.37866,53.747802,oil-and-gas-transport
4621472,Hukunsti,-24.098613738999916,21.526663780000064,net-shrubgrass
25454768,Tongling Wanneng power station,30.8818,117.7644,electricity-generation
1566817,ArcelorMittal Méditerranée Fos sur Mer steel plant,43.4375434117291,4.89013421389233,iron-and-steel
4624319,Chifeng,43.22818374750008,118.50179039732865,net-shrubgrass
25450988,Wanakbori Thermal Power Station,22.8776,73.3605,electricity-generation
37811691,Detroit,42.5238041349761,-83.38137569749756,road-transportation
4570798,Central Darling,-31.779079357499935,143.59623111866279,net-shrubgrass
451563,QURAYYAH- CC,25.8447,50.1251,electricity-generation
1566455,Usiminas Ipatinga steel plant,-19.4870170637707,-42.5446980355797,iron-and-steel
3588804,United States_North Slope_Conventional onshore,70.304479,-149.748221,oil-and-gas-production
1566654,Pangang Group Panzhihua Steel Vanadium Co Ltd,26.5666099886919,101.675582979625,iron-and-steel
8309619,Yalinga,7.660138369000123,23.738642625834853,net-forest-land
25453844,Mong Duong power station,21.0732,107.3485,electricity-generation
25453984,Fuzhou power station,27.7845,116.5644,electricity-generation
25451014,Huainan Luohe power station,32.6846,117.0751,electricity-generation
1566661,Tianjin Rockcheck Steel Group Co Ltd,38.9694332349327,117.496250906514,iron-and-steel
4573783,Menzies,-29.406417846999915,125.68566383183646,net-shrubgrass
3167153,İstanbul Airport,41.261297,28.741951,international-aviation
3143817,ZPC Zhejiang Rongsheng Refinery,30.319018,121.952931,oil-and-gas-refining
25453211,Hancheng power station,35.599,110.5525,electricity-generation
25454364,BALCO Korba power station,22.399,82.74,electricity-generation
25451620,Ib Valley Thermal Power Station,21.6898,83.8602,electricity-generation
25457203,Leilongwan power station,37.9254,109.1017,electricity-generation
25455729,Yulin Hengshan power station,38.0337,109.4151,electricity-generation
25457182,Inner Mongolia Shenglu power station,38.3738,106.7737,electricity-generation
25457168,Nanyang Neixiang power station,33.0864,111.9,electricity-generation
25455295,Pingjiang power station,28.8151,113.5249,electricity-generation
1752995,Inner Mongolia Changcheng power station,38.2497,106.6579,electricity-generation
452533,Chuangyuan Smelter power station,45.4373,119.4275,electricity-generation
1566636,Laiwu Iron and Steel Group Yinshan Section Steel Co Ltd,36.1090917381893,117.820735633705,iron-and-steel
25454999,Ningdong Fangjiazhuang power station,37.8376,106.6665,electricity-generation
8398014,Somerset,-27.011507052999974,152.4471559275824,net-forest-land
8372268,Mirninskiy rayon,63.84892463750012,111.32484689707911,net-forest-land
25455142,Ningdong power station,37.8448,106.7868,electricity-generation
3165570,Amsterdam Airport Schiphol,52.308601,4.76389,international-aviation
4862166,Bilibinskiy rayon,67.19539635850012,164.38635133221283,net-shrubgrass
35020071,Rome,41.90771719775608,12.487319940043513,residential-onsite-fuel-usage
4571303,Maralinga Tjarutja,-29.420744646999907,130.99978175848995,net-shrubgrass
1566772,Hüttenwerke Krupp Mannesmann (HKM) steel plant,51.3688861960826,6.7144421406806,iron-and-steel
3588262,Algeria_OtherBasins_OtherResources,28.070417,2.60484,oil-and-gas-transport
37806350,San Jose,37.59193371225261,-122.41038243779445,road-transportation
3672950,AUS-Gladstone,-23.9281275704934,151.636819318148,aluminum
25453413,Shenhua Shentou power station,39.3648,112.5333,electricity-generation
3588632,Egypt_OtherBasins_OtherResources,30.543824,31.823941,oil-and-gas-production
25455474,Yancheng Binhai power station,34.3074,120.2469,electricity-generation
3588510,United States_Denver-Julesburg_Tight oil,40.462747,-104.478798,oil-and-gas-transport
1567095,Alchevsk Metallurgical Plant,48.4713398167848,38.770748395764,iron-and-steel
25452724,Simhadri power station,17.591,83.0917,electricity-generation
1566521,Tangshan Songting Iron & Steel Co Ltd,39.9383756496257,118.573388689758,iron-and-steel
25450595,Guohua Xuzhou power station,34.3858,117.2576,electricity-generation
8299277,Mavinga,-16.14233684599995,20.09016649623971,net-forest-land
3588427,Oman_OtherBasins_OtherResources,21.742995,56.686398,oil-and-gas-transport
25454026,İÇDAŞ Biga power station,40.4438,27.1307,electricity-generation
1566604,Jiujiang Pinggang Iron and Steel Co Ltd,29.7813481418631,116.27938542166,iron-and-steel
1567185,ArcelorMittal Vanderbijlpark Steel Works,-26.6617125847643,27.8169685867176,iron-and-steel
714528,Starobeshivska,47.8008,38.0054,electricity-generation
25453796,Liyujiang power station,25.9435,113.2142,electricity-generation
25452423,Tanda power station,26.5892,82.6004,electricity-generation
25455027,Lixin Banji power station,32.8972,116.2426,electricity-generation
1566525,Hebei Jinxi Iron & Steel Group Co Ltd,40.2093985931339,118.221859080856,iron-and-steel
25454536,Guohua Shouguang power station,37.2697,118.9067,electricity-generation
3588712,Norway_Voring_Conventional shelf,65.269128,7.394959,oil-and-gas-production
8310189,Beijing,40.250894547500025,116.6239986979351,net-forest-land
719528,Junggar Suancigou power station,39.7117,111.2005,electricity-generation
3588812,United States_West Gulf Coast Tertiary_Deepwater,27.075354,-92.275952,oil-and-gas-production
34984644,Beijing,39.91145886907016,116.48719086380032,residential-onsite-fuel-usage
25454826,China Resources Wenzhou power station,27.4974,120.6632,electricity-generation
448334,Orot Rabin,32.4699,34.8863,electricity-generation
1566519,Qian'an Jiujiang Wire Co Ltd,39.9547810895123,118.549708260489,iron-and-steel
25455952,Weda Bay power station,0.4766,127.9948,electricity-generation
25453412,Cilacap Sumber power station,-7.6857,109.0898,electricity-generation
25452426,Novo-Angren power station,40.9233,69.8174,electricity-generation
449541,Sodegaura,35.4626,139.9768,electricity-generation
25451276,Nazarovskaya power station,56.039,90.3456,electricity-generation
25451572,Guodian Baoji-2 power station,34.4964,107.2192,electricity-generation
25455252,Sahiwal power station,30.7142,73.238,electricity-generation
25452006,Huaneng Taicang power station,31.6569,121.1793,electricity-generation
1566662,Tianjin New Tiangang United Special Steel Co Ltd,39.299055924436,117.79848367804,iron-and-steel
25454918,Chongqing Wanzhou power station,30.6779,108.399,electricity-generation
448783,Gladstone,-23.8507,151.2197,electricity-generation
3168750,Shanghai Pudong International Airport,31.1434,121.805,international-aviation
25454534,Guangdong Huizhou Pinghai power station,22.6065,114.7419,electricity-generation
25449106,Sherburne County,45.3808,-93.8931,electricity-generation
448239,CKI Lamma power station,22.2189,114.1082,electricity-generation
25453972,Shanwei Honghaiwan power station,22.7069,115.5553,electricity-generation
32441214,Lingyuan Iron & Steel Co Ltd,41.2730847483926,119.41139812714,iron-and-steel
3621135,Shanghai,31.09528446150012,121.37200387260373,road-transportation
35006809,Paris,48.849845093180015,2.351150672835378,residential-onsite-fuel-usage
25455285,Lufeng Jiahuwan power station,22.8325,115.9855,electricity-generation
448229,Tomato-atsuma power station,42.6118,141.8054,electricity-generation
8376990,Wau,7.476000070500135,27.26900605153918,net-forest-land
449082,Zainsk GRES power station,55.2906,52.0226,electricity-generation
8301005,Cobar,-31.97412586199993,145.29954385628292,net-forest-land
25449143,Jim Bridger,41.7378,-108.7875,electricity-generation
448486,Tom-Usinskaya power station,53.7814,87.5874,electricity-generation
25452673,Jinggangshan power station,27.0469,115.0202,electricity-generation
25455162,Leizhou power station,20.5116,109.828,electricity-generation
3588346,Egypt_OtherBasins_OtherResources,30.543824,31.823941,oil-and-gas-transport
25449078,FirstEnergy Harrison Power Station,39.3842,-80.3325,electricity-generation
37814121,Seoul,37.46829804027408,126.93068323645105,road-transportation
4624707,Chamdo,30.486691475500095,97.32021223933342,net-shrubgrass
1566623,Shaanxi Longmen Steel Co Ltd,35.613507325744,110.574570059455,iron-and-steel
25454825,Zhejiang Taizhou-2 power station,29.0133,121.6972,electricity-generation
450586,Guodian Shizuishan-2 power station,39.2848,106.789,electricity-generation
4865322,Dudinka gorsovet,70.24322120700006,89.93616919058259,net-shrubgrass
4573771,Meekatharra,-25.3007345204999,118.93035089973876,net-shrubgrass
35037154,Philadelphia,39.822059128392226,-75.31817142938532,residential-onsite-fuel-usage
1566561,Baowu Group Echeng Iron and Steel Co Ltd,30.3931013772383,114.858783141561,iron-and-steel
8309607,Bamingui,7.90236210850014,20.040489568749123,net-forest-land
3588707,Nigeria_Niger Delta_Deepwater,3.94582,5.85795,oil-and-gas-production
33998974,CHN-Cangzhou_ammonia,38.2781178932237,116.816648582076,chemicals
8300108,Moxico,-12.271106719499898,19.989307088224994,net-forest-land
25454553,Gadarwara Super Thermal Power Project,22.8618,78.8661,electricity-generation
25454369,Lara Integrated Thermal Power Project,21.7577,83.4575,electricity-generation
25454351,Yermarus power station,16.2953,77.3561,electricity-generation
718543,Adani Godda power station,24.8279,87.2137,electricity-generation
8300101,Luchazes,-13.82960891649995,19.48250626016396,net-forest-land
25454006,Zhuhai GZP power station,21.9681,113.1802,electricity-generation
25455303,Port Qasim EPC power station,24.7845,67.3694,electricity-generation
15157,Haerwusu Surface Mine,39.731044,111.258324,coal-mining
16585,Zhundong South Surface Mine,44.818916,89.233076,coal-mining
25449044,Ghent,38.7485,-85.0374,electricity-generation
25450247,Jimah power station,2.5926,101.7229,electricity-generation
4573236,Ashburton,-22.525238999999942,116.82473237615162,net-shrubgrass
1308356,Shiraz,29.422710419500106,52.820013917530886,residential-onsite-fuel-usage
3588595,Canada_West Canadian - Alberta_Tight oil,53.251467,-114.709208,oil-and-gas-production
25455562,Goseong Green power station,34.9049,128.1254,electricity-generation
8309916,Nord-du-Québec,55.75281500000011,-70.3898471804419,net-forest-land
25455633,Dinginin power station,14.4239,120.542,electricity-generation
4570772,Bourke,-29.996000499999887,145.29399731977355,net-shrubgrass
25455091,Ordos Power Qipanjing power station,39.3852,106.9657,electricity-generation
37805765,Shanghai,31.157130598691033,121.39169964806776,road-transportation
1567071,Isdemir Payas steel plant,36.7357324589469,36.2094833391479,iron-and-steel
4621473,Tshabong,-25.876859664999923,22.11110626065539,net-shrubgrass
8305504,Altamira,-6.316830312499917,-54.262612400284326,net-forest-land
34977523,Buenos Aires,-34.723421687803516,-58.55558661833764,residential-onsite-fuel-usage
25454452,Pingdingshan Luyang power station,33.8219,113.0144,electricity-generation
452755,Aluminium Bahrain (ALBA) power station,26.0911,50.5951,electricity-generation
1566450,Ternium Brasil Santa Cruz steel plant,-22.9146006366637,-43.7428544549895,iron-and-steel
37811327,São Paulo,-23.501825632871245,-46.5223253207724,road-transportation
25450366,Jinzhushan power station,27.6253,111.4824,electricity-generation
449903,Kirishi GRES power station,59.4858,32.0489,electricity-generation
25452918,Zhangshan power station,36.3261,113.0814,electricity-generation
25453931,Shanxi Zhaoguang power station,36.5538,111.6918,electricity-generation
2790256,Port Said,31.2501,32.3162,international-shipping
32440589,Tianjin Iron & Steel Group Co Ltd,39.0259660441455,117.502672045565,iron-and-steel
4869253,Severo-Evenskiy rayon,63.10454450000004,160.11751298698096,net-shrubgrass
4865383,Ilimpiyskiy rayon,65.60852050750015,97.68973545025662,net-shrubgrass
25450374,Nanyang Yahekou power station,33.3086,112.6445,electricity-generation
1566921,Kobe Kakogawa Works steel plant,34.7222793568774,134.827154970098,iron-and-steel
1566915,JFE East Japan Works (Chiba) steel plant,35.5769156723447,140.101387986627,iron-and-steel
25451488,Feroze Gandhi Unchahar Power Station,25.914,81.3239,electricity-generation
1566532,Tangshan Medium Thick Plate Co Ltd,39.2708026216423,119.028294505043,iron-and-steel
25452024,Huadian Weifang power station,36.6656,119.2632,electricity-generation
8310825,Manono,-7.4205415244999235,27.588914376913515,net-forest-land
25454058,Nanpu Quanzhou power station,25.2044,118.9438,electricity-generation
8309632,Kaga-Bandoro,7.483477116000129,19.19801886780504,net-forest-land
1566688,Shanxi Jinnan Iron and Steel Group Co Ltd,35.6781971399801,111.514647072187,iron-and-steel
25453571,Chongqing Shuanghuai power station,30.1611,106.5481,electricity-generation
452341,Beni Suef power plant,28.921,31.0076,electricity-generation
25449203,Cross,33.3715,-80.1132,electricity-generation
25451274,Krasnoyarsk GRES-2 power station,56.1497,94.4817,electricity-generation
1566487,Sansteel Minguang Co Ltd Fujian plant,26.2610623691888,117.612347753141,iron-and-steel
1567104,Cleveland-Cliffs Burns Harbor steel plant,41.6331676444546,-87.1310087775832,iron-and-steel
25454306,Datang Dongying power station,38.1132,118.9102,electricity-generation
25450530,Sual power station,16.125,120.1006,electricity-generation
4403019,Shuangliao power station,43.5282,123.4633,electricity-generation
25451202,Aksu power station,52.12,76.875,electricity-generation
1566553,Henan Jiyuan Iron & Steel (Group) Co Ltd,35.0875770009699,112.55711123121,iron-and-steel
3588633,Egypt_Western Desert_Conventional onshore,30.242845,28.131595,oil-and-gas-production
25455958,Sulawesi Mining power station,-2.8289,122.1556,electricity-generation
25451576,Jingyuan power station,36.7301,104.761,electricity-generation
25450765,Jaworzno power station,50.2072,19.2053,electricity-generation
8301039,Inverell,-29.315261840999913,151.11475967451662,net-forest-land
25453170,Jiaozuo Danhe power station,35.1885,112.8876,electricity-generation
25452952,Guixi power station,28.2891,117.2235,electricity-generation
25454007,Nabinagar Super Thermal Power Project,24.776,84.158,electricity-generation
25450447,Kawagoe thermal power station,35.0079,136.6873,electricity-generation
25451288,Belovskaya power station,54.4449,86.4253,electricity-generation
8372256,Aldanskiy rayon,58.93835830700007,127.63246342528893,net-forest-land
4403955,Braunkohlekraftwerk Lippendorf,51.1845,12.3729,electricity-generation
25449004,Scherer,33.0606,-83.8075,electricity-generation
1896309,Hubei Sheng 13,31.7532888132629,111.822558028527,cement
35037133,Washington D.C.,38.90819062078313,-77.10039614215113,residential-onsite-fuel-usage
25450775,Turów power station,50.9486,14.9131,electricity-generation
8299999,Lubalo,-9.334715366499893,19.496642535824712,net-forest-land
1567300,Tangshan Guoyi Special Type Iron and Steel Co Ltd,39.659153,118.411488,iron-and-steel
1567024,Evraz NTMK steel plant,57.9205775314188,60.0238722349907,iron-and-steel
25451786,Gusinoozyorskaya power station,51.2984,106.4841,electricity-generation
25451406,Chifeng Yuanbaoshan power station,42.3033,119.3242,electricity-generation
25453948,Vallur Thermal Power Plant,13.2371,80.3018,electricity-generation
35036876,Dallas,32.91404388094789,-96.90018354783449,residential-onsite-fuel-usage
1566676,Ningbo Iron & Steel Co Ltd,29.9161611520113,121.875936503793,iron-and-steel
4571181,Paroo,-27.988461494499916,145.79492260558794,net-shrubgrass
1566547,Jianlong Xilin Iron and Steel Co Ltd,47.4974802170631,129.283063077253,iron-and-steel
25454056,Guangdong Shaoguan power station,24.5852,113.5823,electricity-generation
33999123,CHN-Weinan_methanol,34.9517218698657,109.856842010662,chemicals
3588606,China_Sichuan_Acid/sour gas,31.295774,106.866655,oil-and-gas-production
3588387,Kazakhstan_OtherBasins_OtherResources,46.045673,60.294781,oil-and-gas-transport
25455167,Baotou Aluminum power station,40.5575,110.1462,electricity-generation
8310742,Mutshatsha,-10.857646464499934,25.165533169224766,net-forest-land
8300994,Brewarrina,-29.94964408849989,146.97613653324032,net-forest-land
15582,Tashan Coal Mine,39.924229,113.070254,coal-mining
16707,Shaanxi Caojiatan Coal Mine,38.556704,109.898777,coal-mining
4624330,Tongliao,43.966310502000084,122.07430706186074,net-shrubgrass
1566544,Qinhuangdao Hongxing Iron and Steel Co Ltd,39.6993153835526,118.870709738408,iron-and-steel
3588789,United States_Arkoma_Shale gas,35.246678,-92.84769,oil-and-gas-production
449217,Huadian Shiliquan power station,34.8144,117.5731,electricity-generation
25451053,Huaneng Fuzhou power station,25.9908,119.4816,electricity-generation
37810205,Denver,39.67911000399452,-105.18185695260058,road-transportation
35036872,Houston,29.881677075533467,-95.51090908523534,residential-onsite-fuel-usage
25452667,Xuchang Yulong power station,34.1751,113.3581,electricity-generation
4404121,Shuaiba South power plant,29.0322,48.1547,electricity-generation
25451006,Qitaihe power station,45.7604,131.0533,electricity-generation
25450375,Yaomeng power station,33.738,113.2419,electricity-generation
8372280,Tattinskiy rayon,62.42600822600011,133.9641929145291,net-forest-land
25452447,Schwarze Pumpe power station,51.5379,14.3535,electricity-generation
25451251,Samchonpo power station,34.9107,128.1084,electricity-generation
25453460,Huadian Xisaishan power station,30.2031,115.1803,electricity-generation
25450244,Stanwell power station,-23.5102,150.32,electricity-generation
37807667,Toronto,43.589197986195956,-79.7521376766492,road-transportation
8372290,Zhiganskiy rayon,67.0423240665001,122.6947321014239,net-forest-land
2796084,Busan South,35.10502549976752,129.05899395243475,international-shipping
1308497,Mashhad,36.43169403150014,59.79057764639924,residential-onsite-fuel-usage
25454286,Uchpinda power station,21.8864,83.1208,electricity-generation
449532,Futtsu,35.3447,139.8349,electricity-generation
8397950,Roper Gulf,-15.305660999999958,134.05687560478293,net-forest-land
25454688,Shanwei Haifeng CCS power station,22.7545,115.042,electricity-generation
25453381,Qianxi power station,27.0517,106.1252,electricity-generation
25453946,Datong-2 power station,40.0279,113.2933,electricity-generation
35020170,Nagoya,35.07222584812989,136.90531962867692,residential-onsite-fuel-usage
8397185,São Gabriel da Cachoeira,0.35107474100004765,-68.16448536843683,net-forest-land
3588588,Canada_OtherBasins_OtherResources,55.566636,-99.213943,oil-and-gas-production
25457205,Shaanxi Youser Yulin power station,38.5324,109.8797,electricity-generation
25451585,Novosibirsk-5 power station,55.0055,83.0615,electricity-generation
25450212,Rayalaseema Thermal Power Project,14.704,78.4577,electricity-generation
25455169,Jimah East power station,2.5927,101.7309,electricity-generation
37812427,Beijing,39.91145886907016,116.48719086380032,road-transportation
447857,Ratchaburi (RATCHGEN),13.6023,99.8872,electricity-generation
3588530,Uzbekistan_Amu-Darya_Conventional onshore,38.989923,65.108952,oil-and-gas-transport
25454093,Xinyang power station,32.109,114.1409,electricity-generation
25450250,Azerbaijan thermal power plant,40.781,46.9909,electricity-generation
14912,Mt Thorley Warkworth Coal Mine,-32.60700995,151.0901636,coal-mining
16615,Hongshaquan No. 1 Surface Mine,44.502378,90.296864,coal-mining
3588402,Malaysia_Sarawak - Luconia-East Natuna_LNG,4.705347,112.515703,oil-and-gas-transport
25453389,Qinhuangdao-2 power station,39.9453,119.643,electricity-generation
8309618,Ouadda,8.080120564000083,22.44104518578085,net-forest-land
8310636,Kabongo,-7.0927803509999015,25.544792756635598,net-forest-land
447456,Tarong,-26.7813,151.9151,electricity-generation
25449280,Jeffrey Energy Center,39.2865,-96.1172,electricity-generation
25453902,Rajpura Thermal Power Project,30.559,76.5776,electricity-generation
25453120,Bellary Thermal Power Station,15.1932,76.7195,electricity-generation
25449377,Prairie State Generating Station,38.2792,-89.6669,electricity-generation
25450974,GKM (Mannheim) power station,49.4457,8.4904,electricity-generation
33999129,CHN-Ordos_ammonia,39.4089113608289,108.618039637608,chemicals
4708924,Ulytauskiy,47.87786865300009,66.90064706607978,net-shrubgrass
8310241,Hechi,24.59291076700009,107.83965313855717,net-forest-land
1566850,SAIL Bokaro steel plant,23.6734705346737,86.1024025606056,iron-and-steel
3144154,Abu Dhabi Oil Refining Company Al-Ruwais Refinery,24.12462,52.71988,oil-and-gas-refining
25454680,Shin Boryeong power station,36.3846,126.4862,electricity-generation
4659589,Jarar,8.072393418000047,44.09445092993976,net-shrubgrass
25453715,Central Java Power Project,-6.9008,109.8037,electricity-generation
8387276,Kenai Peninsula,60.09687250000013,-150.525866083173,net-forest-land
1567174,Hoa Phat Dung Quat steel plant,15.3829880336492,108.793618245857,iron-and-steel
25455417,EMBA Hunutlu power station,36.8161,35.8548,electricity-generation
1921443,Black Point Power Station,22.4138,113.911,electricity-generation
25450685,J-POWER Tachibana-wan power station,33.8586,134.6513,electricity-generation
449710,Yallourn,-38.1773,146.3442,electricity-generation
25455986,Jinling power station,32.1718,119.0198,electricity-generation
25455161,Cenal power station,40.4167,27.3183,electricity-generation
450095,Riyadh 10,24.4165,47.017,electricity-generation
1566545,Xinji Aosen Iron and Steel Group Co Ltd,37.758048979973,115.191709778573,iron-and-steel
25449255,Labadie,38.5622,-90.8377,electricity-generation
3588638,Gabon_Gabon_Conventional onshore,-1.704781,9.757792,oil-and-gas-production
449475,Shahid Salimi,36.8379,53.2589,electricity-generation
25455939,Beihai New Area Heating power station,38.0172,117.9755,electricity-generation
4873519,Tomponskiy rayon,63.89195633050011,136.52809512822853,net-shrubgrass
37811761,Pittsburgh,40.48466009916632,-79.84812320374135,road-transportation
25452016,Huangdao power station,36.0383,120.2194,electricity-generation
3620957,Suzhou,31.404355049000092,120.73464185303058,road-transportation
25451043,Ho-Ping power station,24.3078,121.7635,electricity-generation
8300105,Lumbala-Nguimbo,-14.442763805499961,21.33640077022227,net-forest-land
25452117,Shinchi power station,37.8411,140.9462,electricity-generation
1566652,Shougang Changzhi Iron and Steel Co Ltd,36.3510195167424,113.063591708383,iron-and-steel
25450528,Pagbilao power station,13.8932,121.745,electricity-generation
37810990,St. Louis,38.62823300699418,-90.25832329734575,road-transportation
25449056,Trimble County,38.5846,-85.4137,electricity-generation
8310385,Hulunbuir,50.24089050400008,122.38733314984397,net-forest-land
25452013,Shiheng-2 power station,36.2123,116.5136,electricity-generation
3588607,China_Tarim_Conventional onshore,41.852612,83.787368,oil-and-gas-production
451058,Hongjun Aluminum power station,45.5129,119.6504,electricity-generation
3621211,Tianjin,39.4071369185001,117.35753768721537,road-transportation
25454238,Thai Binh Power Center,20.4819,106.5619,electricity-generation
3588435,Peru_OtherBasins_OtherResources,-6.40338,-76.647515,oil-and-gas-transport
1567219,Guangxi Chiji Iron and Steel Co Ltd,23.402121,111.134606,iron-and-steel
32440775,JSW Steel Dolvi steel plant,18.6882350370792,73.03929614967,iron-and-steel
25451059,Yingkou power station,40.3038,122.106,electricity-generation
3588647,Guyana_OtherBasins_OtherResources,7.920048,-56.746413,oil-and-gas-production
8372282,Ust'-Aldanskiy rayon,63.01425361650013,131.37015106400764,net-forest-land
25452686,Yiyang power station,28.5967,112.2686,electricity-generation
25455978,Delong Nickel Phase II power station,-3.8283,122.4662,electricity-generation
25454160,Amravati Thermal Power Project,21.0803,77.9012,electricity-generation
25454374,Nasik RattanIndia Thermal Power Project,19.8667,74.0817,electricity-generation
3165823,Suvarnabhumi Airport,13.681099891662598,100.74700164794922,international-aviation
32440426,Gansu Jiu Steel Group Hongxing Iron and Steel Co Ltd,39.8172095926011,98.2860781320531,iron-and-steel
8310820,Kalemie,-6.065995692499882,28.888766204601332,net-forest-land
450756,Fulaerji-2 power station,47.1665,123.5847,electricity-generation
3588608,Colombia_Llanos_Conventional onshore,5.1272,-72.108906,oil-and-gas-production
3643398,Cook,41.814729690000064,-87.7521778458969,road-transportation
718119,Wangting Gas,31.4444,120.437,electricity-generation
25449409,Oak Grove (TX),31.1813,-96.489,electricity-generation
1566446,Gerdau Açominas Ouro Branco steel plant,-20.5443518436016,-43.752571915475,iron-and-steel
25451121,Irkutsk-10 power station,52.4619,103.9786,electricity-generation
449012,Nizhnevartovskaya,60.9758,76.9433,electricity-generation
448540,K_KHEDA II,21.2818,79.116,electricity-generation
25451335,Sanjay Gandhi power station,23.3057,81.0648,electricity-generation
3621195,Chengdu,30.770359993000056,104.22354764322127,road-transportation
448444,KOMIPO Incheon,37.5109,126.609,electricity-generation
37809162,Buenos Aires,-34.723421687803516,-58.55558661833764,road-transportation
452297,YANBU (SWCC),23.8606,38.3829,electricity-generation
3588596,Canada_Williston_Conventional onshore,50.214127,-104.756659,oil-and-gas-production
1567051,U. S. Steel Košice steel plant,48.6180787498093,21.2007728842987,iron-and-steel
25448897,Laramie River Station,42.1089,-104.8825,electricity-generation
3588420,Nigeria_Niger Delta_Conventional shelf,4.46789,6.790905,oil-and-gas-transport
8397957,Balonne,-28.285322188999974,147.94382288924476,net-forest-land
25453395,Dengfeng-2 power station,34.3927,113.1988,electricity-generation
25451555,Harbin-3 power station,45.9663,126.6637,electricity-generation
1567290,Metinvest Ilyich Iron & Steel Works,47.1402767591127,37.5943416176078,iron-and-steel
1566697,Hangang Longshan Iron and Steel Co Ltd,36.6855187591452,113.837835384535,iron-and-steel
3588652,Indonesia_East Java_Conventional shelf,-7.126297,114.0601,oil-and-gas-production
25451404,Tongliao power station,43.6714,122.1535,electricity-generation
37811255,Orlando,28.497653129738524,-81.45682552288552,road-transportation
3588816,Uzbekistan_Amu-Darya_Conventional onshore,38.989923,65.108952,oil-and-gas-production
25453858,Indira Gandhi Super Thermal Power Project,28.4851,76.3732,electricity-generation
3674449,Ascend Performance Materials LLC,30.596678,-87.251977,other-chemicals
25454554,Khargone power station,22.0652,75.8519,electricity-generation
25454267,Kawai Thermal Power Project,24.778,76.7371,electricity-generation
25454564,Bander power station,14.3293,80.1406,electricity-generation
25454186,Solapur power station,17.5513,75.9832,electricity-generation
25454022,Meja Thermal Power Project,25.1459,81.9401,electricity-generation
25450209,Kothagudem Thermal Power Station,17.6219,80.6936,electricity-generation
1567251,Shandong Iron and Steel Co Ltd Laiwu Branch Aishan Street,36.087717,117.827927,iron-and-steel
25454271,Raikheda power station,21.4499,81.8525,electricity-generation
4873479,Momskiy rayon,65.86739349400011,143.85893240929732,net-shrubgrass
25455275,Maoming Bohe power station,21.441,111.2896,electricity-generation
34157244,New York,40.65518013209355,-74.47289110520872,non-residential-onsite-fuel-usage
32440419,Fujian Sanbao Steel Co Ltd,24.6354363927112,117.603372213181,iron-and-steel
1567097,Metallurgical Plant Kametstal,48.5248912123602,34.6325795951041,iron-and-steel
3645985,Orange,33.666528701500084,-117.7200844268178,road-transportation
1567073,Kardemir Merkez steel plant,41.1853066102838,32.6308377888502,iron-and-steel
32440878,Kim Chaek Iron and Steel Complex steel plant,41.7507638588511,129.749821819775,iron-and-steel
25455392,Anin power station,37.7332,128.9794,electricity-generation
25455931,Nanshan Aluminum Donghai power station,37.7287,120.4433,electricity-generation
449165,Riyadh 8,24.5946,46.5718,electricity-generation
4929661,North Slope,69.6677055000001,-152.23359699999992,net-shrubgrass
37814670,Suzhou,31.436186298543383,120.55316271746943,road-transportation
3588711,Norway_OtherBasins_OtherResources,64.734299,9.16869,oil-and-gas-production
1753267,Marathon Galveston Bay Refinery,29.374692,-94.933456,oil-and-gas-refining
3645992,San Diego,33.01818300000008,-116.6931273753809,road-transportation
3168316,Narita International Airport,35.764702,140.386002,international-aviation
16311,Grootegeluk Coal Mine,-23.657141,27.566687,coal-mining
3588601,China_North China_Conventional shelf,38.795263,119.318677,oil-and-gas-production
1281249,Harbin,45.367523194000086,127.40632494813303,residential-onsite-fuel-usage
8372258,Amginskiy rayon,60.58715057350008,130.8543427446853,net-forest-land
25449242,Martin Lake,32.2606,-94.5706,electricity-generation
452593,Burullus power plant,31.5307,30.8067,electricity-generation
452594,New Capital power station,29.9094,31.7558,electricity-generation
1753673,SK Ulsan Refinery,35.43317,129.3429,oil-and-gas-refining
18648409,"Zhejiang Petroleum & Chemical, Zhejiang, Zhoushan",30.315957,121.959413,petrochemical-steam-cracking
3645988,Riverside,33.75630950950014,-116.0186359061553,road-transportation
447762,Vales Point B,-33.161,151.5453,electricity-generation
4621471,Gemsbok,-25.305025099999934,21.350924961299327,net-shrubgrass
25450898,Camden power station,-26.6215,30.0901,electricity-generation
8398013,Scenic Rim,-28.04021644499997,152.81060488575451,net-forest-land
8352751,Maynas,-2.3037539719998676,-74.11418152456524,net-forest-land
25448913,Roxboro,36.4833,-79.0731,electricity-generation
35036999,Atlanta,33.77571324536064,-84.33495607154954,residential-onsite-fuel-usage
449584,Mary Thermal Power Plant Turkmenistan,37.5003,61.8413,electricity-generation
1567299,Hebei Tianzhu Iron and Steel Group Co Ltd,39.803524,118.205663,iron-and-steel
25450687,Takehara power station,34.3373,132.9572,electricity-generation
4406849,Yokosuka,35.2156,139.7164,electricity-generation
25455287,Beihai power station,21.5359,109.5902,electricity-generation
25453084,Sagardighi Thermal Power Station,24.3688,88.104,electricity-generation
25451068,Xiangtan power station,27.8283,112.9968,electricity-generation
25452246,Mettur Thermal Power Station,11.7692,77.8102,electricity-generation
25450561,Mount Piper power station,-33.3597,150.0331,electricity-generation
32441205,JFE East Japan Works (Keihin) steel plant,35.4760877913333,139.721902105837,iron-and-steel
25454670,Muthukur Mandal power station (Painampuram),14.3518,80.1451,electricity-generation
8372120,Lazovskiy rayon,43.46416650000015,134.32286295418916,net-forest-land
449459,Ahwaz (ramiin),31.5024,48.8834,electricity-generation
3588272,Argentina_Neuquen_Tight gas,-38.616713,-68.808313,oil-and-gas-transport
450162,TAPCO,24.7624,54.683,electricity-generation
451114,Tunghsiao,24.49,120.6735,electricity-generation
25451195,Raichur Thermal Power Station,16.3532,77.3422,electricity-generation
3588388,Kazakhstan_Precaspian_Conventional onshore,47.494959,53.95819,oil-and-gas-transport
450658,RAS Al Khair,27.5367,49.1389,electricity-generation
451607,JEDDAH SOUTH,21.2121,39.1773,electricity-generation
3169506,Taiwan Taoyuan International Airport,25.0777,121.233002,international-aviation
8299275,Cuito Cuanavale,-14.852451323999926,19.023207385522596,net-forest-land
1380511,Cook,41.814729690000064,-87.7521778458969,residential-onsite-fuel-usage
4406492,Hassyan Clean-Coal Power Project,24.9115,54.9155,electricity-generation
449620,H_GANJ B,28.0175,78.13,electricity-generation
25455479,Quezon power station,14.2296,121.7558,electricity-generation
32440948,Mechel Chelyabinsk Metallurgical Plant,55.2722226730633,61.4318392174868,iron-and-steel
1896332,Shandong Sheng 11,34.7179070187946,117.523476590014,cement
25454656,Anuppur Thermal Power Project,23.0664,81.7901,electricity-generation
3588786,United States_Appalachian_Tight oil,39.923762,-81.357681,oil-and-gas-production
449026,Perm GRES power station,58.4967,56.3464,electricity-generation
449461,Bandar Abbas,27.1467,56.116,electricity-generation
25454678,Darlipali power station,21.9636,83.8919,electricity-generation
37811593,Charlotte,35.22937057609717,-80.87345983532859,road-transportation
1566522,Hebei Puyang Iron and Steel Co Ltd,36.7329478265545,113.926163277217,iron-and-steel
449175,Shuqaiq Steam Power Plant,17.6391,42.1078,electricity-generation
1281442,Tianjin,39.4071369185001,117.35753768721537,residential-onsite-fuel-usage
25451941,Weisweiler power station,50.8396,6.3224,electricity-generation
3621298,Hangzhou,29.875601769000035,119.4725937680054,road-transportation
37810781,Kansas City,39.054999916982766,-94.45594458364795,road-transportation
1567011,GFG Liberty Galati steel plant,45.4342413770278,27.9786796391936,iron-and-steel
16057,KPC Operation Coal Mine,0.823979,117.599032,coal-mining
4624340,Xing'an,45.95700264050009,120.89320527194596,net-shrubgrass
8377053,Tapanahony,3.842533946500083,-54.72248543786391,net-forest-land
3588790,United States_Central Basin Platform_Conventional onshore,32.183144,-102.90053,oil-and-gas-production
4621480,Ngamiland West,-19.59131336249993,21.77665791066134,net-shrubgrass
3588433,Papua New Guinea_OtherBasins_OtherResources,-6.107364,142.975738,oil-and-gas-transport
25455048,Zheneng Liuheng power station,29.7593,122.1266,electricity-generation
25451762,Kota power station,25.171,75.817,electricity-generation
4708643,Bayganinskiy,47.089569091500096,56.41240686685319,net-shrubgrass
8373171,Bakcharskiy rayon,57.06760597250013,81.5033172647774,net-forest-land
4406882,<unknown plant name>,24.6124,46.1518,electricity-generation
25455011,Luoyuan Bay power station,26.3888,119.7872,electricity-generation
25450502,José López Portillo power station,28.4884,-100.6875,electricity-generation
3645645,Dallas,32.68277168300002,-96.78010244136738,road-transportation
21459970,Aksu,41.068391800500024,81.43762004056185,rice-cultivation
1566711,Fujian Dadonghai Industrial Group Co Ltd plant,25.7414636824041,119.590885799559,iron-and-steel
3645991,San Bernardino,34.842300415000125,-116.11201355810512,road-transportation
16542,Zhundong Surface Mine,44.836767,89.148398,coal-mining
1566671,Yunnan Yuxi Iron and Steel Group Yukun Iron and Steel Co Ltd,24.4666487767315,102.543936022682,iron-and-steel
25454202,Mahatma Gandhi power station,28.4881,76.3525,electricity-generation
4711858,Moyynkumskiy,44.87038230950009,72.82750081653856,net-shrubgrass
8310828,Nyunzu,-5.860455035999905,27.660441557913046,net-forest-land
8300993,Bourke,-29.996000499999887,145.29399731977355,net-forest-land
8310273,Daxing'anling,52.19167137150015,124.54589990399879,net-forest-land
2796451,Rotterdam,52.0887153557281,3.976239548174811,international-shipping
4571138,Diamantina,-24.576186179999976,139.68249118123597,net-shrubgrass
25452022,Shengli Dongying power station,37.4003,118.5243,electricity-generation
3167870,Adolfo Suárez Madrid–Barajas Airport,40.471926,-3.56264,international-aviation
34157013,Los Angeles,33.888532650942814,-117.78192346222228,non-residential-onsite-fuel-usage
451028,MARAFIQ Independent Water and power plant,27.0704,49.6078,electricity-generation
8309743,Division No. 1,47.391740799000075,-53.5259958131373,net-forest-land
25452043,Mawan power station,22.4816,113.8716,electricity-generation
25451463,Masinloc power station,15.5638,119.9192,electricity-generation
25457218,Liyuan cogen power station,35.1729,119.0371,electricity-generation
25457157,Jiayuguan Aluminum power station,39.8461,98.2113,electricity-generation
25457204,Meixin captive power station,34.9653,108.9758,electricity-generation
25455377,Wucaiwan Bei'er power station,44.8412,89.1954,electricity-generation
4624744,Shigatse,29.56017684950013,86.580159741283,net-shrubgrass
25454503,Jharsuguda CPP power station,21.788,84.054,electricity-generation
25449254,Springerville,34.3186,-109.1639,electricity-generation
3588661,Iraq_OtherBasins_OtherResources,34.416601,43.908385,oil-and-gas-production
37811031,Tampa,28.013824426124515,-82.49391557613123,road-transportation
25454806,Shenhuo Zhundong power station,44.8955,89.05,electricity-generation
25450367,Guodian Jiujiang power station,29.741,116.0345,electricity-generation
25451341,Bhusawal Thermal Power Station,21.0498,75.8477,electricity-generation
25455495,Tianchi Energy Zhundong Wucaiwan power station,44.8524,89.1959,electricity-generation
446341,Lennox,44.1442,-76.848,electricity-generation
8301085,Tamworth Regional,-30.922024726499927,150.9099057283375,net-forest-land
8305632,Jacareacanga,-7.4789103494998965,-57.60563007740002,net-forest-land
25457152,Crystal River,28.9656,-82.6977,electricity-generation
4865573,Ust'-Yeniseyskiy rayon,70.4552115000001,85.01829603365076,net-shrubgrass
452472,Besmaya power station,33.1634,44.6573,electricity-generation
37807258,Tijuana,32.961590264876186,-116.99550451461148,road-transportation
1566427,Ternium Siderar San Nicolás steel plant,-33.3865536004109,-60.1319366741845,iron-and-steel
25449055,Mill Creek (KY),38.0525,-85.9103,electricity-generation
25454216,Cuddalore IL&FS power station,11.5216,79.7518,electricity-generation
25454372,Angul power station,21.127,84.9806,electricity-generation
25454264,Pegadapalli (Jaipur Mandal) power station,18.8271,79.5703,electricity-generation
25454148,Mutiara Coastal Energen Thermal Power Plant,8.9127,78.145,electricity-generation
25454017,Salaya power plant,22.3049,69.7101,electricity-generation
25451445,Angul Smelter power station,20.849,85.1902,electricity-generation
25452773,Rosa Thermal Power Plant,27.8194,79.9372,electricity-generation
25453582,Mahan Super Thermal Power Project,24.0087,82.417,electricity-generation
449522,Higashi Niigata,38,139.2416,electricity-generation
34978725,Montreal,45.519423876812155,-73.71059179970646,residential-onsite-fuel-usage
1566852,SAIL Rourkela steel plant,22.2122078523673,84.8661243022509,iron-and-steel
25454507,Baradarha power station,21.9114,83.1889,electricity-generation
4694931,Muconda,-10.169949531499952,21.471543009809274,net-shrubgrass
8300009,Cacolo,-10.687063215999956,19.13805935835874,net-forest-land
25450491,Carbón II power station,28.467,-100.699,electricity-generation
1567325,Hebei Wenfeng Iron and Steel Co Ltd,36.64577,114.124258,iron-and-steel
25454215,Jaypee Nigrie Super Thermal Power Project,24.15,81.9045,electricity-generation
1566776,ArcelorMittal Bremen steel plant,53.1312378958179,8.68913865827406,iron-and-steel
25452032,Weihai power station,37.449,122.2072,electricity-generation
37806961,Bangkok,13.841162312838875,100.56800179827216,road-transportation
1567262,Shanxi Zhongyang Iron and Steel Co Ltd,37.3830352383285,111.156443341052,iron-and-steel
35007012,Dortmund,51.561492786367836,7.237239238749838,residential-onsite-fuel-usage
25454021,Kalisindh Thermal Power Station,24.5325,76.1004,electricity-generation
25455489,Hefei Lujiang power station,31.1494,117.4546,electricity-generation
1566509,Shougang Shuicheng Iron and Steel (Group) Co Ltd,26.596735549693,104.876840212088,iron-and-steel
25450590,Huaneng Changxing power station,30.9144,119.9632,electricity-generation
3588381,Israel_Sinai - Levant_Deepwater,33.009956,33.842954,oil-and-gas-transport
718343,Isogo power station (original),35.4028,139.6429,electricity-generation
4760043,Gibeon,-24.706666999999925,15.997488027257294,net-shrubgrass
25454067,Suqian power station,33.8409,118.3658,electricity-generation
1896368,Hebei Sheng 8,36.9201063582107,114.314705576348,cement
3672946,AUS-Murray,-32.6242800584559,115.979246815861,aluminum
33999226,RUS-Novgorodskiy rayon_ammonia,58.6002956645814,31.4446659794503,chemicals
15420,Ningtiaota Coal Mine,39.030282,110.250253,coal-mining
16711,Xiaobaodang No.1 Coal Mine,38.756195,109.893889,coal-mining
15557,Suancigou Coal Mine,39.705785,111.205624,coal-mining
14987,Buertai Coal Mine,39.495115,109.973302,coal-mining
8309750,Division No. 6,48.78991330600016,-56.082832583290696,net-forest-land
25452557,İsken Sugözü power station,36.835,35.8791,electricity-generation
25453203,Jiangsu Zhenjiang power station,32.1858,119.2709,electricity-generation
8370266,Ayano-Mayskiy rayon,57.4348600000001,135.61446803815676,net-forest-land
4624397,Haixi Mongol and Tibetan,37.17485618550009,95.38045487764253,net-shrubgrass
8309751,Division No. 7,48.58710300000007,-54.401003147646975,net-forest-land
716031,Chongqing Relocation power station,28.8445,106.7732,electricity-generation
719532,Shenhua Qingyuan power station,24.417,113.5409,electricity-generation
37814435,Guangzhou,23.05905591768262,113.13813036524996,road-transportation
25453458,Xinchang power station,28.8613,115.9758,electricity-generation
25449031,Rockport,37.9256,-87.0372,electricity-generation
8319361,Lapland,67.83882100000005,26.571651253107422,net-forest-land
453012,Al Dur Power and Water,25.9693,50.608,electricity-generation
34156016,Moscow,55.73854666581315,37.55304557839002,non-residential-onsite-fuel-usage
447705,Manzanillo (Manuel Álvarez Moreno) power station,19.0278,-104.3192,electricity-generation
25450975,Guangdong Shajiao power complex,22.7478,113.6775,electricity-generation
37808341,Johannesburg,-26.14552897296258,28.021934389454927,road-transportation
25453998,Heshuyuan power station,24.3924,116.2609,electricity-generation
3169063,San Francisco International Airport,37.61899948120117,-122.375,international-aviation
4628245,Kapanga,-8.487841129499941,22.796433973232766,net-shrubgrass
35036997,Miami,26.23824553719814,-80.20132382668979,residential-onsite-fuel-usage
37811630,Columbus,40.07248864985892,-82.96691090301076,road-transportation
450026,Shuweihat S1,24.1602,52.5683,electricity-generation
8301032,Gwydir,-29.49810314149994,150.53818368158883,net-forest-land
25450369,Anyuan power station,27.6484,114.0038,electricity-generation
35036828,Seattle,47.62463860469957,-122.13892678814702,residential-onsite-fuel-usage
25451336,Satpura Thermal Power Station,22.1081,78.1771,electricity-generation
25772406,Odayeri,41.2161766,28.8581657,solid-waste-disposal
35020230,Almaty,43.32448004753013,76.97938255693131,residential-onsite-fuel-usage
25453778,Cirebon power station,-6.7703,108.6149,electricity-generation
25455160,Jinsha Chayuan power station,27.4934,106.4492,electricity-generation
1567271,Nippon Setouchi Works (Kure Area) steel plant,34.221172,132.540104,iron-and-steel
1566759,Yangzhou Hengrun Ocean Heavy Industry Co Ltd,32.2504772263576,119.618837275309,iron-and-steel
1567067,Erdemir Eregli steel plant,41.261467963656,31.4258724870855,iron-and-steel
448357,TORANGALLU EXT,15.1839,76.6622,electricity-generation
25453949,Raghunathpur Thermal Power Station,23.6219,86.6607,electricity-generation
15623,Tongxin Coal Mine,40.013182,113.103349,coal-mining
3588378,Iraq_Zagros Foldbelt_Conventional onshore,34.862416,44.67747,oil-and-gas-transport
25455940,Weiqiao Yangxin power station,37.5765,117.5993,electricity-generation
6889,Fu County power station,35.8617,109.2146,electricity-generation
25451334,Hasdeo Thermal Power Station,22.4125,82.6822,electricity-generation
37808936,Cairo,29.89021738467691,31.217372638741974,road-transportation
450555,Datang Heshan power station,23.8212,108.8672,electricity-generation
8396986,Velasco,-15.45555519999991,-60.87755103889528,net-forest-land
31715550,"Changsheng Caichi Co., Ltd., Leping City",29.189179,117.45901,lime
25455981,Baotou East Hope power station,40.5953,109.7822,electricity-generation
3588808,United States_Powder River_Tight oil,43.61052,-105.591833,oil-and-gas-production
449625,Navoi,40.1585,65.3119,electricity-generation
4624327,Ordos,39.24436187750007,108.44671588734073,net-shrubgrass
33999061,CHN-Dezhou_ammonia,37.2439923419329,116.644993658832,chemicals
25455959,Ma'anshan power station,31.7204,118.4594,electricity-generation
25450221,Wuhu Zhongdian power station,31.4521,118.3445,electricity-generation
25457241,Jimsar Wucaiwan Beisan power station,44.8014,89.1928,electricity-generation
25457179,Zhunger Zhujiaping power station,39.6052,111.3697,electricity-generation
25455753,Keyouzhong power station,44.9605,121.4049,electricity-generation
25455985,Zhejiang Zhenhai power station,30.0464,121.6552,electricity-generation
25454541,Yuxian power station,39.8122,114.6365,electricity-generation
25457172,Xiantao power station,30.372,113.5671,electricity-generation
25450606,Laibin power station,23.6949,109.1629,electricity-generation
25454485,Jiaozuo Bo'ai power station,35.221,113.1022,electricity-generation
25457195,Ningxia Zaoquan power station,38.0462,106.6058,electricity-generation
25454321,Datang Nanjing Xiaguan-3 power station,32.2135,119.2103,electricity-generation
4407461,<unknown plant name>,43.5503,115.1452,electricity-generation
720038,Guoneng Suizhou power station,31.6401,113.522,electricity-generation
719695,Weiqiao Aluminum power station,36.8961,117.7873,electricity-generation
450225,Shenhua Shenmu power station,38.9731,110.4521,electricity-generation
452671,Huadian Baotou Tuyou power station,40.5842,110.6227,electricity-generation
447429,WEnergy Maanshan Power Station,31.7507,118.4797,electricity-generation
6343,Guangdong Xijiang power station,23.122,112.2794,electricity-generation
448777,Gansu Yongchang power station,38.501,102.2698,electricity-generation
1751747,Xinfeng power station,25.2818,114.914,electricity-generation
1752993,Guodian Zhunger Changtan power station,39.5436,111.3628,electricity-generation
1753075,Wanneng Jiangbu power station,44.7026,89.6784,electricity-generation
25455645,Beijing Energy Wujianfang power station,44.6024,116.698,electricity-generation
448353,Jingdezhen power station,29.1872,117.085,electricity-generation
25455503,Xinjiang Jiarun power station,44.3122,86.4185,electricity-generation
3144102,Saudi Aramco Ras Tanura Refinery,26.70243,50.09207,oil-and-gas-refining
8310666,Kamonia,-6.513253926999937,20.631531122203008,net-forest-land
25451531,Tianjin Dagang power station,38.7755,117.4933,electricity-generation
3588438,Qatar_OtherBasins_OtherResources,26.169062,51.547607,oil-and-gas-transport
8301052,Liverpool Plains,-31.470050811499895,150.39426628686118,net-forest-land
4404318,Hengyun-D power station,23.0655,113.4982,electricity-generation
25452584,Fujian Shaowu power station,27.3867,117.4608,electricity-generation
8385212,Rufiji,-7.992916107499923,38.644978999045094,net-forest-land
37811463,Indianapolis,39.78631142917269,-86.16407863937616,road-transportation
449531,Chiba,35.5646,140.1056,electricity-generation
8397981,Fraser Coast,-25.583514174499925,152.51606520554503,net-forest-land
25454998,Guodian Dananhu power station,42.3202,93.1914,electricity-generation
1567195,Alliance Steel Kuantan plant,4.007595,103.344458,iron-and-steel
1566591,Jiangsu Xugang Iron and Steel Group Co Ltd,34.5753330601135,117.337114814331,iron-and-steel
1566608,Jilin Xinda Iron and Steel Co Ltd,42.3232317256113,125.245819001196,iron-and-steel
3588671,Kazakhstan_Mangyshlak - Ustyurt_Conventional onshore,43.693332,51.964322,oil-and-gas-production
8396677,Kazungula,-17.048876286999928,25.695832197373264,net-forest-land
32440773,JSPL Odisha steel plant,20.8770471380576,84.9907796438054,iron-and-steel
3588394,Libya_OtherBasins_OtherResources,30.139617,13.695714,oil-and-gas-transport
35037108,Detroit,42.5238041349761,-83.38137569749756,residential-onsite-fuel-usage
25454843,Inner Mongolia Xilin power station,43.9844,116.1306,electricity-generation
25455647,Guodian Liaocheng power station,36.4911,115.8288,electricity-generation
448746,Tongmei Yongji power station,34.856,110.4707,electricity-generation
25453650,Hainan East power station,19.05,108.6362,electricity-generation
1566517,Tangshan Donghua Iron & Steel Enterprise Group Co Ltd,39.4663389256675,118.254596568189,iron-and-steel
1566575,Lengshuijiang Steel Co Ltd,27.6895089900525,111.439023879307,iron-and-steel
1753266,Motiva Port Arthur Refinery,29.884891,-93.960709,oil-and-gas-refining
4406881,<unknown plant name>,24.785,45.6215,electricity-generation
25454760,Tianfu North power station,44.4408,86.094,electricity-generation
25448977,H L Spurlock,38.7,-83.8181,electricity-generation
25455962,Dananhu power station,42.3059,93.3519,electricity-generation
25455305,Xinyou Qitai power station,44.5544,90.2572,electricity-generation
25449040,La Cygne,38.3481,-94.6456,electricity-generation
8310372,Fushun,41.85949201200009,124.51196335498358,net-forest-land
25454049,CPI Baicheng power station,45.5263,122.7754,electricity-generation
25449057,Fayette Power Project,29.9172,-96.7506,electricity-generation
8376989,Raja,8.707434654500076,25.242069756256093,net-forest-land
4571051,Warrumbungle,-31.455188751499886,149.46327928547277,net-shrubgrass
32438162,Hebei Sheng 6,36.6574065199891,114.220795164956,cement
452710,High River power station,36.1651,112.9616,electricity-generation
3588289,Bangladesh_Tripura - Cachar - Bengal_Conventional onshore,24.299701,91.508289,oil-and-gas-transport
1566629,Weifang Special Steel Group Co Ltd,36.6437478411184,119.238896097821,iron-and-steel
1753130,Sulawesi Labota power station,-2.8686,122.1727,electricity-generation
715246,Az Zour North,28.7135,48.3806,electricity-generation
4767328,Tsumkwe,-19.619096754499875,19.88404419958261,net-shrubgrass
4574001,Upper Gascoyne,-24.745191573999904,116.52730560300017,net-shrubgrass
25455666,Xinjiang Guoxin Qitai power station,44.5437,90.256,electricity-generation
37806713,Istanbul,41.005708422119504,28.983408437496834,road-transportation
1566838,Dexin Steel Morowali plant,-2.83215283089032,122.158534157742,iron-and-steel
25455486,Datang Xilinhot power station,44.0223,116.1722,electricity-generation
25450174,Afşin-Elbistan power stations,38.3533,36.9806,electricity-generation
1567286,Shandong Laigang Yongfeng Steel Co Ltd,36.8078386638148,116.772829758617,iron-and-steel
3588774,United Kingdom_Central Graben_Conventional shelf,57.088339,1.537947,oil-and-gas-production
1567108,Cleveland-Cliffs Cleveland steel plant,41.4641240221126,-81.6767262274015,iron-and-steel
33999102,RUS-Cherepovetskiy rayon_ammonia,59.1189711186671,37.8888069916324,chemicals
25453545,Guangzhou Zhujiang power station,22.8148,113.5678,electricity-generation
1566826,British Steel Scunthorpe plant,53.5793660305139,-0.61172722688862,iron-and-steel
1567098,Yenakiieve Metallurgical Plant,48.2214521463501,38.2326762270032,iron-and-steel
1567313,U.S. Steel Great Lakes Works,42.263181,-83.121553,iron-and-steel
25450362,Hebi power station,35.8514,114.1798,electricity-generation
1566854,Tata Steel Kalinganagar steel plant,20.9683941500946,86.0111160538661,iron-and-steel
1753268,Marathon Garyville Refinery,30.060139,-90.595952,oil-and-gas-refining
25453907,Jiutai power station,44.1071,125.928,electricity-generation
8310635,Bukama,-8.835054397499931,26.118999480348894,net-forest-land
32440460,Chengde Jianlong Special Steel Co Ltd,40.514076764604,117.596965479567,iron-and-steel
25454789,Ewenki power station,48.73,119.9406,electricity-generation
4621700,Baffin,79.62100200000009,-76.76145811705197,net-shrubgrass
4621719,Cochrane,50.29585850000014,-83.03324386950615,net-shrubgrass
25450980,Panxian-1 power station,26.0108,104.5161,electricity-generation
15908,Gevra Coal Mine,22.336312,82.545748,coal-mining
25454568,Guodian Zhijin power station,26.8328,105.8189,electricity-generation
712515,S-Oil Onsan Refinery,35.47791,129.36163,oil-and-gas-refining
25455236,XPCC Hongxing power station,42.3147,93.6506,electricity-generation
25453995,Anhui Xuancheng power station,30.8696,118.865,electricity-generation
25452021,Qingdao power station,36.1124,120.3295,electricity-generation
447962,Połaniec Zielony Blok,50.4353,21.3368,electricity-generation
25449034,Intermountain Power Project,39.5097,-112.5802,electricity-generation
25454672,Pu'an power station,25.5248,104.9748,electricity-generation
1566607,Tonghua Iron and Steel Co Ltd,41.7780944194965,126.021399048944,iron-and-steel
1566655,Pangang Group Xichang Steel and Vanadium Co Ltd,27.7457858648316,102.20763182921,iron-and-steel
450412,Damavand power station,35.4156,51.851,electricity-generation
719692,Huaneng Beifang Xilnhaote-3,43.9998,116.1123,electricity-generation
25453954,Anwen Songzao power station,28.6411,106.7531,electricity-generation
8372262,Eveno-Bytantayskiy rayon,67.6372108465001,130.20521453102046,net-forest-land
25451004,Hanfeng power station,36.4718,114.1516,electricity-generation
3588557,Argentina_Neuquen_Shale oil,-38.12345,-68.701499,oil-and-gas-production
1566640,Shanxi Xintai Iron and Steel Co Ltd,37.0763879645308,111.984630871106,iron-and-steel
35019928,Mashhad,36.3150822458565,59.54109130776436,residential-onsite-fuel-usage
25455034,CPI Xining power station,36.5843,101.4931,electricity-generation
